{
  "case": "12:00128:ART4",
  "config": {
    "disabled_tools": [],
    "locate_model": "gemini-flash"
  },
  "pick": {
    "top_lat": 52.483927,
    "top_lon": 1.300685,
    "sigma_m": 500,
    "confidence": "high",
    "picked_source": "place:Lundy Green",
    "evidence": "The site is located at Turkey Row, just north of Lundy Green in the parish of Hempnall. The 'Lundy Green' place hit provides a precise anchor for the cluster of buildings shown at the bottom of the map. The site boundary extends north from this hamlet.",
    "verified_inside_admin_region": true
  },
  "err_km": 0.5011539559170032,
  "gt_centroids": [
    {
      "lat": 52.486652248996606,
      "lon": 1.3071199907177589
    },
    {
      "lat": 52.48418898990687,
      "lon": 1.309110521940893
    },
    {
      "lat": 52.48489031704312,
      "lon": 1.3079148809396939
    }
  ],
  "trajectory_stats": {
    "tool_calls": {
      "place": 6,
      "road": 1,
      "la_check": 1,
      "final_result": 1
    },
    "total_tool_calls": 9,
    "n_turns": 9,
    "validator_retries": 0
  },
  "trajectory": [
    {
      "turn": 0,
      "role": "request",
      "kind": "UserPromptPart",
      "user_summary": "1 text + 1 images"
    },
    {
      "turn": 1,
      "role": "response",
      "kind": "ThinkingPart",
      "text": ""
    },
    {
      "turn": 1,
      "role": "response",
      "kind": "ToolCallPart",
      "tool": "place",
      "args": {
        "query": "Turkey Row",
        "la": "South Norfolk"
      }
    },
    {
      "turn": 1,
      "role": "response",
      "kind": "ToolCallPart",
      "tool": "place",
      "args": {
        "la": "South Norfolk",
        "query": "Lundy Green"
      }
    },
    {
      "turn": 1,
      "role": "response",
      "kind": "ToolCallPart",
      "tool": "place",
      "args": {
        "la": "South Norfolk",
        "query": "Hempnall House"
      }
    },
    {
      "turn": 1,
      "role": "response",
      "kind": "ToolCallPart",
      "tool": "place",
      "args": {
        "la": "South Norfolk",
        "query": "Pear Tree Farm"
      }
    },
    {
      "turn": 2,
      "role": "request",
      "kind": "ToolReturnPart",
      "tool": "place",
      "return": {
        "success": true,
        "query": "Turkey Row",
        "la_filter": "South Norfolk",
        "n_hits": 0,
        "hits": []
      }
    },
    {
      "turn": 2,
      "role": "request",
      "kind": "ToolReturnPart",
      "tool": "place",
      "return": {
        "success": true,
        "query": "Lundy Green",
        "la_filter": "South Norfolk",
        "n_hits": 1,
        "hits": [
          {
            "name": "Lundy Green",
            "type": "hamlet",
            "lat": 52.4839270584857,
            "lon": 1.3006848045958799,
            "admin_district": "South Norfolk",
            "county": "Norfolk"
          }
        ]
      }
    },
    {
      "turn": 2,
      "role": "request",
      "kind": "ToolReturnPart",
      "tool": "place",
      "return": {
        "success": true,
        "query": "Hempnall House",
        "la_filter": "South Norfolk",
        "n_hits": 0,
        "hits": []
      }
    },
    {
      "turn": 2,
      "role": "request",
      "kind": "ToolReturnPart",
      "tool": "place",
      "return": {
        "success": true,
        "query": "Pear Tree Farm",
        "la_filter": "South Norfolk",
        "n_hits": 1,
        "hits": [
          {
            "name": "Pear Tree Farm",
            "type": "named road",
            "lat": 53.66627521002347,
            "lon": -2.6671968890344826,
            "admin_district": "Chorley",
            "county": "Lancashire"
          }
        ]
      }
    },
    {
      "turn": 3,
      "role": "response",
      "kind": "ThinkingPart",
      "text": ""
    },
    {
      "turn": 3,
      "role": "response",
      "kind": "ToolCallPart",
      "tool": "place",
      "args": {
        "la": "South Norfolk",
        "query": "Hempnall"
      }
    },
    {
      "turn": 3,
      "role": "response",
      "kind": "ToolCallPart",
      "tool": "road",
      "args": {
        "query": "Lower Lane",
        "la": "South Norfolk"
      }
    },
    {
      "turn": 4,
      "role": "request",
      "kind": "ToolReturnPart",
      "tool": "place",
      "return": {
        "success": true,
        "query": "Hempnall",
        "la_filter": "South Norfolk",
        "n_hits": 5,
        "hits": [
          {
            "name": "Hempnall",
            "type": "village",
            "lat": 52.50247456802341,
            "lon": 1.2983464851444433,
            "admin_district": "South Norfolk",
            "county": "Norfolk"
          },
          {
            "name": "Hempnall Green",
            "type": "village",
            "lat": 52.48583390057944,
            "lon": 1.3116117784378567,
            "admin_district": "South Norfolk",
            "county": "Norfolk"
          },
          {
            "name": "Hempnall Road",
            "type": "named road",
            "lat": 52.49595357538416,
            "lon": 1.3663208813130812,
            "admin_district": "South Norfolk",
            "county": "Norfolk"
          },
          {
            "name": "Hempnall Road",
            "type": "section of named road",
            "lat": 52.495446364169,
            "lon": 1.3749615217184827,
            "admin_district": "South Norfolk",
            "county": "Norfolk"
          },
          {
            "name": "Hempnall Primary School",
            "type": "primary education",
            "lat": 52.503328015440765,
            "lon": 1.2983809498976198,
            "admin_district": "South Norfolk",
            "county": "Norfolk"
          }
        ]
      }
    },
    {
      "turn": 4,
      "role": "request",
      "kind": "ToolReturnPart",
      "tool": "road",
      "return": {
        "success": true,
        "query": "Lower Lane",
        "la_filter": "South Norfolk",
        "n_hits": 0,
        "hits": []
      }
    },
    {
      "turn": 5,
      "role": "response",
      "kind": "ThinkingPart",
      "text": ""
    },
    {
      "turn": 5,
      "role": "response",
      "kind": "ToolCallPart",
      "tool": "place",
      "args": {
        "query": "Three Horseshoes",
        "la": "South Norfolk"
      }
    },
    {
      "turn": 5,
      "role": "response",
      "kind": "ToolCallPart",
      "tool": "la_check",
      "args": {
        "la": "South Norfolk",
        "lat": 52.4839270584857,
        "lon": 1.30068480459588
      }
    },
    {
      "turn": 6,
      "role": "request",
      "kind": "ToolReturnPart",
      "tool": "place",
      "return": {
        "success": true,
        "query": "Three Horseshoes",
        "la_filter": "South Norfolk",
        "n_hits": 3,
        "hits": [
          {
            "name": "Three Horseshoes Close",
            "type": "named road",
            "lat": 51.87991908680426,
            "lon": -1.0093857688626777,
            "admin_district": null,
            "county": "Buckinghamshire"
          },
          {
            "name": "Three Horseshoes Walk",
            "type": "named road",
            "lat": 51.20574391474341,
            "lon": -2.1805805614031035,
            "admin_district": null,
            "county": "Wiltshire"
          },
          {
            "name": "Three Horseshoes Road",
            "type": "named road",
            "lat": 51.759549429609805,
            "lon": 0.08148493119846796,
            "admin_district": "Harlow",
            "county": "Essex"
          }
        ]
      }
    },
    {
      "turn": 6,
      "role": "request",
      "kind": "ToolReturnPart",
      "tool": "la_check",
      "return": {
        "success": true,
        "lat": 52.4839270584857,
        "lon": 1.30068480459588,
        "la": "South Norfolk",
        "inside_la": true,
        "distance_km_approx": 0.0,
        "la_centroid_lat": 52.51456820108335,
        "la_centroid_lon": 1.2759378849924117
      }
    },
    {
      "turn": 7,
      "role": "response",
      "kind": "ThinkingPart",
      "text": ""
    },
    {
      "turn": 7,
      "role": "response",
      "kind": "ToolCallPart",
      "tool": "final_result",
      "args": {
        "picked_source": "place:Lundy Green",
        "sigma_m": 500,
        "top_lon": 1.300685,
        "verified_inside_admin_region": true,
        "confidence": "high",
        "evidence": "The site is located at Turkey Row, just north of Lundy Green in the parish of Hempnall. The 'Lundy Green' place hit provides a precise anchor for the cluster of buildings shown at the bottom of the map. The site boundary extends north from this hamlet.",
        "top_lat": 52.483927
      }
    },
    {
      "turn": 8,
      "role": "request",
      "kind": "ToolReturnPart",
      "tool": "final_result",
      "return": "Final result processed."
    }
  ]
}