{
  "case": "23:53160:ART4",
  "config": {
    "disabled_tools": [],
    "locate_model": "gemini-flash"
  },
  "pick": {
    "top_lat": 52.70491,
    "top_lon": 1.40743,
    "sigma_m": 300,
    "confidence": "high",
    "picked_source": "place:Charles Close",
    "evidence": "The site is centered on Charles Close in Wroxham. The intersection of Charles Close and The Avenue (52.7030, 1.4101) and the centroid of Charles Close (52.7049, 1.4074) align perfectly with the map image and the village of Wroxham. Verified inside Broadland.",
    "verified_inside_admin_region": true
  },
  "err_km": 0.0658560535767297,
  "gt_centroids": [
    {
      "lat": 52.705099433875546,
      "lon": 1.4065038937917476
    }
  ],
  "trajectory_stats": {
    "tool_calls": {
      "postcode": 1,
      "place": 4,
      "intersect": 1,
      "la_check": 2,
      "final_result": 1
    },
    "total_tool_calls": 9,
    "n_turns": 7,
    "validator_retries": 0
  },
  "trajectory": [
    {
      "turn": 0,
      "role": "request",
      "kind": "UserPromptPart",
      "user_summary": "1 text + 1 images"
    },
    {
      "turn": 1,
      "role": "response",
      "kind": "ThinkingPart",
      "text": ""
    },
    {
      "turn": 1,
      "role": "response",
      "kind": "ToolCallPart",
      "tool": "postcode",
      "args": {
        "pc": "NR7 0DU"
      }
    },
    {
      "turn": 1,
      "role": "response",
      "kind": "ToolCallPart",
      "tool": "place",
      "args": {
        "query": "Charles Close, Wroxham",
        "la": "Broadland"
      }
    },
    {
      "turn": 1,
      "role": "response",
      "kind": "ToolCallPart",
      "tool": "intersect",
      "args": {
        "road_a": "Charles Close",
        "la": "Broadland",
        "road_b": "The Avenue"
      }
    },
    {
      "turn": 1,
      "role": "response",
      "kind": "ToolCallPart",
      "tool": "place",
      "args": {
        "query": "Wroxham Conservation Area",
        "la": "Broadland"
      }
    },
    {
      "turn": 2,
      "role": "request",
      "kind": "ToolReturnPart",
      "tool": "postcode",
      "return": {
        "success": false,
        "error": "Postcode 'NR7 0DU' not found in Code-Point Open"
      }
    },
    {
      "turn": 2,
      "role": "request",
      "kind": "ToolReturnPart",
      "tool": "place",
      "return": {
        "success": true,
        "query": "Charles Close, Wroxham",
        "la_filter": "Broadland",
        "n_hits": 0,
        "hits": []
      }
    },
    {
      "turn": 2,
      "role": "request",
      "kind": "ToolReturnPart",
      "tool": "intersect",
      "return": {
        "success": true,
        "roads": [
          "Charles Close",
          "The Avenue"
        ],
        "la_filter": "Broadland",
        "n_intersections": 2,
        "intersections": [
          {
            "lat": 52.703001,
            "lon": 1.410088,
            "roads": [
              "Charles Close",
              "The Avenue"
            ]
          },
          {
            "lat": 52.706138,
            "lon": 1.406637,
            "roads": [
              "Charles Close",
              "The Avenue"
            ]
          }
        ]
      }
    },
    {
      "turn": 2,
      "role": "request",
      "kind": "ToolReturnPart",
      "tool": "place",
      "return": {
        "success": true,
        "query": "Wroxham Conservation Area",
        "la_filter": "Broadland",
        "n_hits": 0,
        "hits": []
      }
    },
    {
      "turn": 3,
      "role": "response",
      "kind": "ThinkingPart",
      "text": ""
    },
    {
      "turn": 3,
      "role": "response",
      "kind": "ToolCallPart",
      "tool": "place",
      "args": {
        "la": "Broadland",
        "query": "Charles Close"
      }
    },
    {
      "turn": 3,
      "role": "response",
      "kind": "ToolCallPart",
      "tool": "la_check",
      "args": {
        "la": "Broadland",
        "lon": 1.410088,
        "lat": 52.703001
      }
    },
    {
      "turn": 3,
      "role": "response",
      "kind": "ToolCallPart",
      "tool": "la_check",
      "args": {
        "lon": 1.406637,
        "lat": 52.706138,
        "la": "Broadland"
      }
    },
    {
      "turn": 3,
      "role": "response",
      "kind": "ToolCallPart",
      "tool": "place",
      "args": {
        "query": "Wroxham",
        "la": "Broadland"
      }
    },
    {
      "turn": 4,
      "role": "request",
      "kind": "ToolReturnPart",
      "tool": "place",
      "return": {
        "success": true,
        "query": "Charles Close",
        "la_filter": "Broadland",
        "n_hits": 2,
        "hits": [
          {
            "name": "Charles Close",
            "type": "named road",
            "lat": 52.70491010896464,
            "lon": 1.407432316130304,
            "admin_district": "Broadland",
            "county": "Norfolk"
          },
          {
            "name": "Charles Close",
            "type": "named road",
            "lat": 52.64297489433554,
            "lon": 1.5417473948574705,
            "admin_district": "Broadland",
            "county": "Norfolk"
          }
        ]
      }
    },
    {
      "turn": 4,
      "role": "request",
      "kind": "ToolReturnPart",
      "tool": "la_check",
      "return": {
        "success": true,
        "lat": 52.703001,
        "lon": 1.410088,
        "la": "Broadland",
        "inside_la": true,
        "distance_km_approx": 0.0,
        "la_centroid_lat": 52.70119443642098,
        "la_centroid_lon": 1.3101886931294198
      }
    },
    {
      "turn": 4,
      "role": "request",
      "kind": "ToolReturnPart",
      "tool": "la_check",
      "return": {
        "success": true,
        "lat": 52.706138,
        "lon": 1.406637,
        "la": "Broadland",
        "inside_la": true,
        "distance_km_approx": 0.0,
        "la_centroid_lat": 52.70119443642098,
        "la_centroid_lon": 1.3101886931294198
      }
    },
    {
      "turn": 4,
      "role": "request",
      "kind": "ToolReturnPart",
      "tool": "place",
      "return": {
        "success": true,
        "query": "Wroxham",
        "la_filter": "Broadland",
        "n_hits": 5,
        "hits": [
          {
            "name": "Wroxham",
            "type": "village",
            "lat": 52.7066178772019,
            "lon": 1.40152414472359,
            "admin_district": "Broadland",
            "county": "Norfolk"
          },
          {
            "name": "Wroxham Road",
            "type": "named road",
            "lat": 52.726857355281744,
            "lon": 1.3765686877277317,
            "admin_district": "Broadland",
            "county": "Norfolk"
          },
          {
            "name": "Wroxham Road",
            "type": "section of named road",
            "lat": 52.680677874537594,
            "lon": 1.3701317712970684,
            "admin_district": "Broadland",
            "county": "Norfolk"
          },
          {
            "name": "Wroxham Road",
            "type": "named road",
            "lat": 52.67092538502902,
            "lon": 1.3496441325084632,
            "admin_district": "Broadland",
            "county": "Norfolk"
          },
          {
            "name": "Wroxham Broad",
            "type": "inland water",
            "lat": 52.69695844960819,
            "lon": 1.4165238372873519,
            "admin_district": "Broadland",
            "county": "Norfolk"
          }
        ]
      }
    },
    {
      "turn": 5,
      "role": "response",
      "kind": "ThinkingPart",
      "text": ""
    },
    {
      "turn": 5,
      "role": "response",
      "kind": "ToolCallPart",
      "tool": "final_result",
      "args": {
        "sigma_m": 300,
        "evidence": "The site is centered on Charles Close in Wroxham. The intersection of Charles Close and The Avenue (52.7030, 1.4101) and the centroid of Charles Close (52.7049, 1.4074) align perfectly with the map image and the village of Wroxham. Verified inside Broadland.",
        "top_lat": 52.70491,
        "verified_inside_admin_region": true,
        "top_lon": 1.40743,
        "confidence": "high",
        "picked_source": "place:Charles Close"
      }
    },
    {
      "turn": 6,
      "role": "request",
      "kind": "ToolReturnPart",
      "tool": "final_result",
      "return": "Final result processed."
    }
  ]
}