{
  "case": "A4_002:CA",
  "config": {
    "disabled_tools": [],
    "locate_model": "gemini-flash"
  },
  "pick": {
    "top_lat": 52.6307930601681,
    "top_lon": -1.11905291699256,
    "sigma_m": 1000,
    "confidence": "med",
    "picked_source": "place:Highfields",
    "evidence": "The site is the South Highfields Conservation Area in Leicester. Geocoding 'Highfields' in Leicester provides a central point for this suburban area, which aligns with the map and pdf_info.",
    "verified_inside_admin_region": true
  },
  "err_km": 0.17850996317868068,
  "gt_centroids": [
    {
      "lat": 52.62918847406824,
      "lon": -1.1189698155996506
    },
    {
      "lat": 52.63015653769887,
      "lon": -1.1223950485763752
    },
    {
      "lat": 52.62720787894073,
      "lon": -1.1184427852038663
    }
  ],
  "trajectory_stats": {
    "tool_calls": {
      "place": 2,
      "la_check": 1,
      "final_result": 1
    },
    "total_tool_calls": 4,
    "n_turns": 7,
    "validator_retries": 0
  },
  "trajectory": [
    {
      "turn": 0,
      "role": "request",
      "kind": "UserPromptPart",
      "user_summary": "1 text + 1 images"
    },
    {
      "turn": 1,
      "role": "response",
      "kind": "ThinkingPart",
      "text": ""
    },
    {
      "turn": 1,
      "role": "response",
      "kind": "ToolCallPart",
      "tool": "place",
      "args": {
        "query": "South Highfields Conservation Area",
        "la": "Leicester"
      }
    },
    {
      "turn": 1,
      "role": "response",
      "kind": "ToolCallPart",
      "tool": "place",
      "args": {
        "query": "Highfields",
        "la": "Leicester"
      }
    },
    {
      "turn": 2,
      "role": "request",
      "kind": "ToolReturnPart",
      "tool": "place",
      "return": {
        "success": true,
        "query": "South Highfields Conservation Area",
        "la_filter": "Leicester",
        "n_hits": 0,
        "hits": []
      }
    },
    {
      "turn": 2,
      "role": "request",
      "kind": "ToolReturnPart",
      "tool": "place",
      "return": {
        "success": true,
        "query": "Highfields",
        "la_filter": "Leicester",
        "n_hits": 5,
        "hits": [
          {
            "name": "Highfields",
            "type": "suburban area",
            "lat": 52.6307930601681,
            "lon": -1.11905291699256,
            "admin_district": null,
            "county": "City of Leicester"
          },
          {
            "name": "Highfields",
            "type": "named road",
            "lat": 52.75264736056145,
            "lon": -1.1443039531926145,
            "admin_district": "Charnwood",
            "county": "Leicestershire"
          },
          {
            "name": "Highfields",
            "type": "named road",
            "lat": 52.662054650789,
            "lon": -1.3094689995102513,
            "admin_district": "Hinckley and Bosworth",
            "county": "Leicestershire"
          },
          {
            "name": "Highfields Close",
            "type": "named road",
            "lat": 52.7110918494167,
            "lon": -1.4442372865345383,
            "admin_district": "North West Leicestershire",
            "county": "Leicestershire"
          },
          {
            "name": "Highfields Close",
            "type": "named road",
            "lat": 52.74618276108474,
            "lon": -1.4829440968530199,
            "admin_district": "North West Leicestershire",
            "county": "Leicestershire"
          }
        ]
      }
    },
    {
      "turn": 3,
      "role": "response",
      "kind": "ThinkingPart",
      "text": ""
    },
    {
      "turn": 3,
      "role": "response",
      "kind": "ToolCallPart",
      "tool": "la_check",
      "args": {
        "la": "Leicester",
        "lat": 52.6307930601681,
        "lon": -1.11905291699256
      }
    },
    {
      "turn": 4,
      "role": "request",
      "kind": "ToolReturnPart",
      "tool": "la_check",
      "return": {
        "success": true,
        "lat": 52.6307930601681,
        "lon": -1.11905291699256,
        "la": "Leicester",
        "inside_la": true,
        "distance_km_approx": 0.0,
        "la_centroid_lat": 52.637924699786105,
        "la_centroid_lon": -1.1284839173160834
      }
    },
    {
      "turn": 5,
      "role": "response",
      "kind": "ThinkingPart",
      "text": ""
    },
    {
      "turn": 5,
      "role": "response",
      "kind": "ToolCallPart",
      "tool": "final_result",
      "args": {
        "top_lon": -1.11905291699256,
        "confidence": "med",
        "verified_inside_admin_region": true,
        "picked_source": "place:Highfields",
        "sigma_m": 1000,
        "evidence": "The site is the South Highfields Conservation Area in Leicester. Geocoding 'Highfields' in Leicester provides a central point for this suburban area, which aligns with the map and pdf_info.",
        "top_lat": 52.6307930601681
      }
    },
    {
      "turn": 6,
      "role": "request",
      "kind": "ToolReturnPart",
      "tool": "final_result",
      "return": "Final result processed."
    }
  ]
}