{
  "case": "A4DA03",
  "config": {
    "disabled_tools": [],
    "locate_model": "gemini-flash"
  },
  "pick": {
    "top_lat": 53.6945,
    "top_lon": -2.228,
    "sigma_m": 400,
    "confidence": "high",
    "picked_source": "place:Higher Tunstead Farm (interpolated)",
    "evidence": "The site is Higher Tunstead Farm, located between Stacksteads and Tunstead. The map shows the site north of Newchurch Road and Carlton Terrace. The coordinates (53.6945, -2.228) sit between the geocoded centroids for Stacksteads and Tunstead, aligning with the map's layout.",
    "verified_inside_admin_region": true
  },
  "err_km": 0.2708740966799052,
  "gt_centroids": [
    {
      "lat": 53.694456908805066,
      "lon": -2.2321136392404126
    }
  ],
  "trajectory_stats": {
    "tool_calls": {
      "place": 4,
      "intersect": 1,
      "road": 1,
      "la_check": 1,
      "final_result": 1
    },
    "total_tool_calls": 8,
    "n_turns": 9,
    "validator_retries": 0
  },
  "trajectory": [
    {
      "turn": 0,
      "role": "request",
      "kind": "UserPromptPart",
      "user_summary": "1 text + 1 images"
    },
    {
      "turn": 1,
      "role": "response",
      "kind": "ThinkingPart",
      "text": ""
    },
    {
      "turn": 1,
      "role": "response",
      "kind": "ToolCallPart",
      "tool": "place",
      "args": {
        "query": "Higher Tunstead Farm",
        "la": "Rossendale"
      }
    },
    {
      "turn": 1,
      "role": "response",
      "kind": "ToolCallPart",
      "tool": "place",
      "args": {
        "query": "Stacksteads",
        "la": "Rossendale"
      }
    },
    {
      "turn": 1,
      "role": "response",
      "kind": "ToolCallPart",
      "tool": "place",
      "args": {
        "la": "Rossendale",
        "query": "Tunstead"
      }
    },
    {
      "turn": 1,
      "role": "response",
      "kind": "ToolCallPart",
      "tool": "intersect",
      "args": {
        "la": "Rossendale",
        "road_a": "Newchurch Road",
        "road_b": "Booth Road"
      }
    },
    {
      "turn": 2,
      "role": "request",
      "kind": "ToolReturnPart",
      "tool": "place",
      "return": {
        "success": true,
        "query": "Higher Tunstead Farm",
        "la_filter": "Rossendale",
        "n_hits": 0,
        "hits": []
      }
    },
    {
      "turn": 2,
      "role": "request",
      "kind": "ToolReturnPart",
      "tool": "place",
      "return": {
        "success": true,
        "query": "Stacksteads",
        "la_filter": "Rossendale",
        "n_hits": 1,
        "hits": [
          {
            "name": "Stacksteads",
            "type": "suburban area",
            "lat": 53.69364266592209,
            "lon": -2.232214224860093,
            "admin_district": "Rossendale",
            "county": "Lancashire"
          }
        ]
      }
    },
    {
      "turn": 2,
      "role": "request",
      "kind": "ToolReturnPart",
      "tool": "place",
      "return": {
        "success": true,
        "query": "Tunstead",
        "la_filter": "Rossendale",
        "n_hits": 5,
        "hits": [
          {
            "name": "Tunstead",
            "type": "suburban area",
            "lat": 53.69341247758592,
            "lon": -2.2256858223146563,
            "admin_district": "Rossendale",
            "county": "Lancashire"
          },
          {
            "name": "Tunstead Road",
            "type": "named road",
            "lat": 53.69430457280618,
            "lon": -2.2244790406319255,
            "admin_district": "Rossendale",
            "county": "Lancashire"
          },
          {
            "name": "Tunstead Lane",
            "type": "section of named road",
            "lat": 53.69380450938774,
            "lon": -2.2321848279000513,
            "admin_district": "Rossendale",
            "county": "Lancashire"
          },
          {
            "name": "Tunstead Lane",
            "type": "named road",
            "lat": 53.69590238920494,
            "lon": -2.234922495622875,
            "admin_district": "Rossendale",
            "county": "Lancashire"
          },
          {
            "name": "Tunstead Crescent",
            "type": "named road",
            "lat": 53.6950502676271,
            "lon": -2.2246496046325444,
            "admin_district": "Rossendale",
            "county": "Lancashire"
          }
        ]
      }
    },
    {
      "turn": 2,
      "role": "request",
      "kind": "ToolReturnPart",
      "tool": "intersect",
      "return": {
        "success": true,
        "roads": [
          "Newchurch Road",
          "Booth Road"
        ],
        "la_filter": "Rossendale",
        "n_intersections": 1,
        "intersections": [
          {
            "lat": 53.692826,
            "lon": -2.220563,
            "roads": [
              "Newchurch Road",
              "Booth Road"
            ]
          }
        ]
      }
    },
    {
      "turn": 3,
      "role": "response",
      "kind": "ThinkingPart",
      "text": ""
    },
    {
      "turn": 3,
      "role": "response",
      "kind": "ToolCallPart",
      "tool": "place",
      "args": {
        "query": "Carlton Terrace",
        "la": "Rossendale"
      }
    },
    {
      "turn": 3,
      "role": "response",
      "kind": "ToolCallPart",
      "tool": "road",
      "args": {
        "la": "Rossendale",
        "query": "Tunstead Lane"
      }
    },
    {
      "turn": 4,
      "role": "request",
      "kind": "ToolReturnPart",
      "tool": "place",
      "return": {
        "success": true,
        "query": "Carlton Terrace",
        "la_filter": "Rossendale",
        "n_hits": 5,
        "hits": [
          {
            "name": "Carlton Terrace",
            "type": "named road",
            "lat": 55.955920594241825,
            "lon": -3.173440408734045,
            "admin_district": null,
            "county": "City of Edinburgh"
          },
          {
            "name": "Carlton Terrace",
            "type": "named road",
            "lat": 54.935286705580765,
            "lon": -1.6035475585731136,
            "admin_district": "Gateshead",
            "county": null
          },
          {
            "name": "Carlton Terrace",
            "type": "named road",
            "lat": 55.008908394607445,
            "lon": -1.4602387406617063,
            "admin_district": "North Tyneside",
            "county": null
          },
          {
            "name": "Carlton Terrace",
            "type": "named road",
            "lat": 54.78281232890941,
            "lon": -1.3507269308394338,
            "admin_district": null,
            "county": "County Durham"
          },
          {
            "name": "Carlton Terrace",
            "type": "named road",
            "lat": 53.72065499320246,
            "lon": -1.862440786280721,
            "admin_district": "Calderdale",
            "county": null
          }
        ]
      }
    },
    {
      "turn": 4,
      "role": "request",
      "kind": "ToolReturnPart",
      "tool": "road",
      "return": {
        "success": true,
        "query": "Tunstead Lane",
        "la_filter": "Rossendale",
        "n_hits": 2,
        "hits": [
          {
            "name": "Tunstead Lane",
            "lat": 53.69618426597973,
            "lon": -2.236901191763543,
            "in_la": "Rossendale"
          },
          {
            "name": "Tunstead Lane",
            "lat": 53.69375872307359,
            "lon": -2.2322269039664424,
            "in_la": "Rossendale"
          }
        ]
      }
    },
    {
      "turn": 5,
      "role": "response",
      "kind": "ThinkingPart",
      "text": ""
    },
    {
      "turn": 5,
      "role": "response",
      "kind": "ToolCallPart",
      "tool": "la_check",
      "args": {
        "la": "Rossendale",
        "lon": -2.228,
        "lat": 53.6945
      }
    },
    {
      "turn": 6,
      "role": "request",
      "kind": "ToolReturnPart",
      "tool": "la_check",
      "return": {
        "success": true,
        "lat": 53.6945,
        "lon": -2.228,
        "la": "Rossendale",
        "inside_la": true,
        "distance_km_approx": 0.0,
        "la_centroid_lat": 53.69381770640495,
        "la_centroid_lon": -2.2673137098881666
      }
    },
    {
      "turn": 7,
      "role": "response",
      "kind": "ThinkingPart",
      "text": ""
    },
    {
      "turn": 7,
      "role": "response",
      "kind": "ToolCallPart",
      "tool": "final_result",
      "args": {
        "sigma_m": 400,
        "evidence": "The site is Higher Tunstead Farm, located between Stacksteads and Tunstead. The map shows the site north of Newchurch Road and Carlton Terrace. The coordinates (53.6945, -2.228) sit between the geocoded centroids for Stacksteads and Tunstead, aligning with the map's layout.",
        "confidence": "high",
        "top_lat": 53.6945,
        "picked_source": "place:Higher Tunstead Farm (interpolated)",
        "verified_inside_admin_region": true,
        "top_lon": -2.228
      }
    },
    {
      "turn": 8,
      "role": "request",
      "kind": "ToolReturnPart",
      "tool": "final_result",
      "return": "Final result processed."
    }
  ]
}