{
  "case": "SSA414",
  "config": {
    "disabled_tools": [],
    "locate_model": "gemini-flash"
  },
  "pick": {
    "top_lat": 52.506483,
    "top_lon": -2.197413,
    "sigma_m": 300,
    "confidence": "high",
    "picked_source": "intersect:Swindon Road x Hinksford Lane",
    "evidence": "The map shows a site at the junction of Swindon Road and Hinksford Lane, opposite the Old Bush P.H. The intersection tool confirms this junction in Hinksford, South Staffordshire.",
    "verified_inside_admin_region": true
  },
  "err_km": 0.2098889676475392,
  "gt_centroids": [
    {
      "lat": 52.506717553199316,
      "lon": -2.1943358858532402
    }
  ],
  "trajectory_stats": {
    "tool_calls": {
      "place": 2,
      "intersect": 1,
      "la_check": 1,
      "final_result": 1
    },
    "total_tool_calls": 5,
    "n_turns": 7,
    "validator_retries": 0
  },
  "trajectory": [
    {
      "turn": 0,
      "role": "request",
      "kind": "UserPromptPart",
      "user_summary": "1 text + 1 images"
    },
    {
      "turn": 1,
      "role": "response",
      "kind": "ThinkingPart",
      "text": ""
    },
    {
      "turn": 1,
      "role": "response",
      "kind": "ToolCallPart",
      "tool": "place",
      "args": {
        "la": "South Staffordshire",
        "query": "Old Bush P.H."
      }
    },
    {
      "turn": 1,
      "role": "response",
      "kind": "ToolCallPart",
      "tool": "place",
      "args": {
        "query": "Hinksford Lane",
        "la": "South Staffordshire"
      }
    },
    {
      "turn": 1,
      "role": "response",
      "kind": "ToolCallPart",
      "tool": "intersect",
      "args": {
        "la": "South Staffordshire",
        "road_b": "Hinksford Lane",
        "road_a": "Swindon Road"
      }
    },
    {
      "turn": 2,
      "role": "request",
      "kind": "ToolReturnPart",
      "tool": "place",
      "return": {
        "success": true,
        "query": "Old Bush P.H.",
        "la_filter": "South Staffordshire",
        "n_hits": 0,
        "hits": []
      }
    },
    {
      "turn": 2,
      "role": "request",
      "kind": "ToolReturnPart",
      "tool": "place",
      "return": {
        "success": true,
        "query": "Hinksford Lane",
        "la_filter": "South Staffordshire",
        "n_hits": 5,
        "hits": [
          {
            "name": "Hinksford Lane",
            "type": "section of named road",
            "lat": 52.506722047903274,
            "lon": -2.197393689442016,
            "admin_district": "South Staffordshire",
            "county": "Staffordshire"
          },
          {
            "name": "Hinksford Lane",
            "type": "named road",
            "lat": 52.50960611569851,
            "lon": -2.1984085405790084,
            "admin_district": "South Staffordshire",
            "county": "Staffordshire"
          },
          {
            "name": "Hinksford Lane",
            "type": "section of named road",
            "lat": 52.511291250210455,
            "lon": -2.2013483205168556,
            "admin_district": "South Staffordshire",
            "county": "Staffordshire"
          },
          {
            "name": "Hinksford",
            "type": "village",
            "lat": 52.50582372517677,
            "lon": -2.196991875713584,
            "admin_district": "South Staffordshire",
            "county": "Staffordshire"
          },
          {
            "name": "Hinksford Gardens",
            "type": "named road",
            "lat": 52.512000342438284,
            "lon": -2.2019998974132466,
            "admin_district": "South Staffordshire",
            "county": "Staffordshire"
          }
        ]
      }
    },
    {
      "turn": 2,
      "role": "request",
      "kind": "ToolReturnPart",
      "tool": "intersect",
      "return": {
        "success": true,
        "roads": [
          "Swindon Road",
          "Hinksford Lane"
        ],
        "la_filter": "South Staffordshire",
        "n_intersections": 1,
        "intersections": [
          {
            "lat": 52.506483,
            "lon": -2.197413,
            "roads": [
              "Swindon Road",
              "Hinksford Lane"
            ]
          }
        ]
      }
    },
    {
      "turn": 3,
      "role": "response",
      "kind": "ThinkingPart",
      "text": ""
    },
    {
      "turn": 3,
      "role": "response",
      "kind": "ToolCallPart",
      "tool": "la_check",
      "args": {
        "la": "South Staffordshire",
        "lat": 52.506483,
        "lon": -2.197413
      }
    },
    {
      "turn": 4,
      "role": "request",
      "kind": "ToolReturnPart",
      "tool": "la_check",
      "return": {
        "success": true,
        "lat": 52.506483,
        "lon": -2.197413,
        "la": "South Staffordshire",
        "inside_la": true,
        "distance_km_approx": 0.0,
        "la_centroid_lat": 52.6255743669412,
        "la_centroid_lon": -2.1766636234531243
      }
    },
    {
      "turn": 5,
      "role": "response",
      "kind": "ThinkingPart",
      "text": ""
    },
    {
      "turn": 5,
      "role": "response",
      "kind": "ToolCallPart",
      "tool": "final_result",
      "args": {
        "sigma_m": 300,
        "confidence": "high",
        "verified_inside_admin_region": true,
        "top_lat": 52.506483,
        "evidence": "The map shows a site at the junction of Swindon Road and Hinksford Lane, opposite the Old Bush P.H. The intersection tool confirms this junction in Hinksford, South Staffordshire.",
        "top_lon": -2.197413,
        "picked_source": "intersect:Swindon Road x Hinksford Lane"
      }
    },
    {
      "turn": 6,
      "role": "request",
      "kind": "ToolReturnPart",
      "tool": "final_result",
      "return": "Final result processed."
    }
  ]
}