{
  "case": "12:00160:ART4",
  "config": {
    "disabled_tools": [
      "intersect"
    ],
    "locate_model": "gemini-flash"
  },
  "pick": {
    "top_lat": 52.46,
    "top_lon": 1.16,
    "sigma_m": 800,
    "confidence": "high",
    "picked_source": "place:Tibenham / Aslacton midpoint",
    "evidence": "The map shows a large airfield (Tibenham Airfield) located between the villages of Tibenham and Aslacton. The coordinates 52.46, 1.16 place the center of the site directly on the airfield runways as depicted in the map. Verified inside South Norfolk.",
    "verified_inside_admin_region": true
  },
  "err_km": 0.09882180218953462,
  "gt_centroids": [
    {
      "lat": 52.45426648699641,
      "lon": 1.1528409988638937
    },
    {
      "lat": 52.46054584026853,
      "lon": 1.1611510537132064
    }
  ],
  "trajectory_stats": {
    "tool_calls": {
      "place": 6,
      "la_check": 1,
      "final_result": 1
    },
    "total_tool_calls": 8,
    "n_turns": 9,
    "validator_retries": 0
  },
  "trajectory": [
    {
      "turn": 0,
      "role": "request",
      "kind": "UserPromptPart",
      "user_summary": "1 text + 1 images"
    },
    {
      "turn": 1,
      "role": "response",
      "kind": "ThinkingPart",
      "text": ""
    },
    {
      "turn": 1,
      "role": "response",
      "kind": "ToolCallPart",
      "tool": "place",
      "args": {
        "la": "Norfolk",
        "query": "Tibenham"
      }
    },
    {
      "turn": 1,
      "role": "response",
      "kind": "ToolCallPart",
      "tool": "place",
      "args": {
        "query": "Aslacton",
        "la": "Norfolk"
      }
    },
    {
      "turn": 1,
      "role": "response",
      "kind": "ToolCallPart",
      "tool": "place",
      "args": {
        "query": "Tibenham Airfield",
        "la": "Norfolk"
      }
    },
    {
      "turn": 2,
      "role": "request",
      "kind": "ToolReturnPart",
      "tool": "place",
      "return": {
        "success": true,
        "query": "Tibenham",
        "la_filter": "Norfolk",
        "n_hits": 2,
        "hits": [
          {
            "name": "Tibenham",
            "type": "village",
            "lat": 52.46377029099687,
            "lon": 1.1444044472010866,
            "admin_district": "South Norfolk",
            "county": "Norfolk"
          },
          {
            "name": "Tibenham Road",
            "type": "named road",
            "lat": 52.46519084685833,
            "lon": 1.1666520157627804,
            "admin_district": "South Norfolk",
            "county": "Norfolk"
          }
        ]
      }
    },
    {
      "turn": 2,
      "role": "request",
      "kind": "ToolReturnPart",
      "tool": "place",
      "return": {
        "success": true,
        "query": "Aslacton",
        "la_filter": "Norfolk",
        "n_hits": 4,
        "hits": [
          {
            "name": "Aslacton",
            "type": "village",
            "lat": 52.47512250914894,
            "lon": 1.1742583952663646,
            "admin_district": "South Norfolk",
            "county": "Norfolk"
          },
          {
            "name": "Aslacton Road",
            "type": "named road",
            "lat": 52.48675419028904,
            "lon": 1.182506731580448,
            "admin_district": "South Norfolk",
            "county": "Norfolk"
          },
          {
            "name": "Aslacton Primary School",
            "type": "primary education",
            "lat": 52.47457443480727,
            "lon": 1.1759126552482484,
            "admin_district": "South Norfolk",
            "county": "Norfolk"
          },
          {
            "name": "Aslacton Road",
            "type": "section of named road",
            "lat": 52.48896638900884,
            "lon": 1.1851858907937027,
            "admin_district": "South Norfolk",
            "county": "Norfolk"
          }
        ]
      }
    },
    {
      "turn": 2,
      "role": "request",
      "kind": "ToolReturnPart",
      "tool": "place",
      "return": {
        "success": true,
        "query": "Tibenham Airfield",
        "la_filter": "Norfolk",
        "n_hits": 0,
        "hits": []
      }
    },
    {
      "turn": 3,
      "role": "response",
      "kind": "ThinkingPart",
      "text": ""
    },
    {
      "turn": 3,
      "role": "response",
      "kind": "ToolCallPart",
      "tool": "place",
      "args": {
        "query": "Longrow Farm",
        "la": "Norfolk"
      }
    },
    {
      "turn": 3,
      "role": "response",
      "kind": "ToolCallPart",
      "tool": "place",
      "args": {
        "query": "Woodstock Farm",
        "la": "Norfolk"
      }
    },
    {
      "turn": 3,
      "role": "response",
      "kind": "ToolCallPart",
      "tool": "place",
      "args": {
        "la": "Norfolk",
        "query": "Hill Farm"
      }
    },
    {
      "turn": 4,
      "role": "request",
      "kind": "ToolReturnPart",
      "tool": "place",
      "return": {
        "success": true,
        "query": "Longrow Farm",
        "la_filter": "Norfolk",
        "n_hits": 0,
        "hits": []
      }
    },
    {
      "turn": 4,
      "role": "request",
      "kind": "ToolReturnPart",
      "tool": "place",
      "return": {
        "success": true,
        "query": "Woodstock Farm",
        "la_filter": "Norfolk",
        "n_hits": 0,
        "hits": []
      }
    },
    {
      "turn": 4,
      "role": "request",
      "kind": "ToolReturnPart",
      "tool": "place",
      "return": {
        "success": true,
        "query": "Hill Farm",
        "la_filter": "Norfolk",
        "n_hits": 4,
        "hits": [
          {
            "name": "Hill Farm Lane",
            "type": "named road",
            "lat": 52.72553907814345,
            "lon": 0.21782809555997842,
            "admin_district": "King's Lynn and West Norfolk",
            "county": "Norfolk"
          },
          {
            "name": "Hill Farm Close",
            "type": "named road",
            "lat": 52.60472266606819,
            "lon": 1.24013118452679,
            "admin_district": "South Norfolk",
            "county": "Norfolk"
          },
          {
            "name": "Hill Farm Road",
            "type": "section of named road",
            "lat": 52.49023082518503,
            "lon": 1.2386125721760721,
            "admin_district": "South Norfolk",
            "county": "Norfolk"
          },
          {
            "name": "Hill Farm Road",
            "type": "named road",
            "lat": 52.490011898127285,
            "lon": 1.2390532144744626,
            "admin_district": "South Norfolk",
            "county": "Norfolk"
          }
        ]
      }
    },
    {
      "turn": 5,
      "role": "response",
      "kind": "ThinkingPart",
      "text": ""
    },
    {
      "turn": 5,
      "role": "response",
      "kind": "ToolCallPart",
      "tool": "la_check",
      "args": {
        "lat": 52.46,
        "lon": 1.16,
        "la": "South Norfolk"
      }
    },
    {
      "turn": 6,
      "role": "request",
      "kind": "ToolReturnPart",
      "tool": "la_check",
      "return": {
        "success": true,
        "lat": 52.46,
        "lon": 1.16,
        "la": "South Norfolk",
        "inside_la": true,
        "distance_km_approx": 0.0,
        "la_centroid_lat": 52.51456820108335,
        "la_centroid_lon": 1.2759378849924117
      }
    },
    {
      "turn": 7,
      "role": "response",
      "kind": "ThinkingPart",
      "text": ""
    },
    {
      "turn": 7,
      "role": "response",
      "kind": "ToolCallPart",
      "tool": "final_result",
      "args": {
        "evidence": "The map shows a large airfield (Tibenham Airfield) located between the villages of Tibenham and Aslacton. The coordinates 52.46, 1.16 place the center of the site directly on the airfield runways as depicted in the map. Verified inside South Norfolk.",
        "picked_source": "place:Tibenham / Aslacton midpoint",
        "confidence": "high",
        "top_lon": 1.16,
        "sigma_m": 800,
        "verified_inside_admin_region": true,
        "top_lat": 52.46
      }
    },
    {
      "turn": 8,
      "role": "request",
      "kind": "ToolReturnPart",
      "tool": "final_result",
      "return": "Final result processed."
    }
  ]
}