{
  "case": "23:53149:ART4",
  "config": {
    "disabled_tools": [
      "intersect"
    ],
    "locate_model": "gemini-flash"
  },
  "pick": {
    "top_lat": 52.7885,
    "top_lon": 1.027,
    "sigma_m": 1000,
    "confidence": "med",
    "picked_source": "place:Foulsham Airfield (via Guestwick Rd)",
    "evidence": "The site is identified as Foulsham Airfield, located north of Foulsham village. The map shows 'Barnards Farm' adjacent to the site. Geocoding Guestwick Road (which runs through the former airfield) and Foulsham village provides a consistent area. The picked coordinate is on the former airfield site near Barnards Farm.",
    "verified_inside_admin_region": true
  },
  "err_km": 1.2781772252365433,
  "gt_centroids": [
    {
      "lat": 52.79886166689419,
      "lon": 1.0187695263861591
    }
  ],
  "trajectory_stats": {
    "tool_calls": {
      "place": 5,
      "road": 2,
      "la_check": 1,
      "final_result": 1
    },
    "total_tool_calls": 9,
    "n_turns": 11,
    "validator_retries": 0
  },
  "trajectory": [
    {
      "turn": 0,
      "role": "request",
      "kind": "UserPromptPart",
      "user_summary": "1 text + 1 images"
    },
    {
      "turn": 1,
      "role": "response",
      "kind": "ThinkingPart",
      "text": ""
    },
    {
      "turn": 1,
      "role": "response",
      "kind": "ToolCallPart",
      "tool": "place",
      "args": {
        "la": "Broadland",
        "query": "Foulsham Airfield"
      }
    },
    {
      "turn": 1,
      "role": "response",
      "kind": "ToolCallPart",
      "tool": "place",
      "args": {
        "la": "Broadland",
        "query": "Barnards Farm"
      }
    },
    {
      "turn": 1,
      "role": "response",
      "kind": "ToolCallPart",
      "tool": "place",
      "args": {
        "la": "Broadland",
        "query": "Foulsham"
      }
    },
    {
      "turn": 2,
      "role": "request",
      "kind": "ToolReturnPart",
      "tool": "place",
      "return": {
        "success": true,
        "query": "Foulsham Airfield",
        "la_filter": "Broadland",
        "n_hits": 0,
        "hits": []
      }
    },
    {
      "turn": 2,
      "role": "request",
      "kind": "ToolReturnPart",
      "tool": "place",
      "return": {
        "success": true,
        "query": "Barnards Farm",
        "la_filter": "Broadland",
        "n_hits": 1,
        "hits": [
          {
            "name": "Barnards Farm",
            "type": "named road",
            "lat": 50.69949895642488,
            "lon": -3.0949435676048194,
            "admin_district": "East Devon",
            "county": "Devon"
          }
        ]
      }
    },
    {
      "turn": 2,
      "role": "request",
      "kind": "ToolReturnPart",
      "tool": "place",
      "return": {
        "success": true,
        "query": "Foulsham",
        "la_filter": "Broadland",
        "n_hits": 4,
        "hits": [
          {
            "name": "Foulsham",
            "type": "village",
            "lat": 52.783833859557035,
            "lon": 1.0116937643790804,
            "admin_district": "Broadland",
            "county": "Norfolk"
          },
          {
            "name": "Foulsham Road",
            "type": "named road",
            "lat": 52.792008292307926,
            "lon": 1.0440941725146413,
            "admin_district": "Broadland",
            "county": "Norfolk"
          },
          {
            "name": "Foulsham Primary School",
            "type": "primary education",
            "lat": 52.78218873928242,
            "lon": 1.0091922462748957,
            "admin_district": "Broadland",
            "county": "Norfolk"
          },
          {
            "name": "Foulsham Road",
            "type": "section of named road",
            "lat": 52.793522333638,
            "lon": 1.0460692076766702,
            "admin_district": "Broadland",
            "county": "Norfolk"
          }
        ]
      }
    },
    {
      "turn": 3,
      "role": "response",
      "kind": "ThinkingPart",
      "text": ""
    },
    {
      "turn": 3,
      "role": "response",
      "kind": "ToolCallPart",
      "tool": "place",
      "args": {
        "query": "RAF Foulsham"
      }
    },
    {
      "turn": 3,
      "role": "response",
      "kind": "ToolCallPart",
      "tool": "place",
      "args": {
        "query": "Barnards Farm, Foulsham"
      }
    },
    {
      "turn": 4,
      "role": "request",
      "kind": "ToolReturnPart",
      "tool": "place",
      "return": {
        "success": true,
        "query": "RAF Foulsham",
        "la_filter": null,
        "n_hits": 0,
        "hits": []
      }
    },
    {
      "turn": 4,
      "role": "request",
      "kind": "ToolReturnPart",
      "tool": "place",
      "return": {
        "success": true,
        "query": "Barnards Farm, Foulsham",
        "la_filter": null,
        "n_hits": 0,
        "hits": []
      }
    },
    {
      "turn": 5,
      "role": "response",
      "kind": "ThinkingPart",
      "text": ""
    },
    {
      "turn": 5,
      "role": "response",
      "kind": "ToolCallPart",
      "tool": "road",
      "args": {
        "query": "Guestwick Road",
        "la": "Broadland"
      }
    },
    {
      "turn": 5,
      "role": "response",
      "kind": "ToolCallPart",
      "tool": "road",
      "args": {
        "query": "The Street",
        "la": "Broadland"
      }
    },
    {
      "turn": 6,
      "role": "request",
      "kind": "ToolReturnPart",
      "tool": "road",
      "return": {
        "success": true,
        "query": "Guestwick Road",
        "la_filter": "Broadland",
        "n_hits": 5,
        "hits": [
          {
            "name": "Guestwick Road",
            "lat": 52.807054074075076,
            "lon": 1.0814133618059925,
            "in_la": "Broadland"
          },
          {
            "name": "Guestwick Road",
            "lat": 52.80668278263506,
            "lon": 1.088333172914803,
            "in_la": "Broadland"
          },
          {
            "name": "Guestwick Road",
            "lat": 52.78859197154803,
            "lon": 1.0271854738885136,
            "in_la": "Broadland"
          },
          {
            "name": "Guestwick Road",
            "lat": 52.78829046486017,
            "lon": 1.0221981251720607,
            "in_la": "Broadland"
          },
          {
            "name": "Guestwick Road",
            "lat": 52.78966849775258,
            "lon": 1.0302029494334402,
            "in_la": "Broadland"
          }
        ]
      }
    },
    {
      "turn": 6,
      "role": "request",
      "kind": "ToolReturnPart",
      "tool": "road",
      "return": {
        "success": true,
        "query": "The Street",
        "la_filter": "Broadland",
        "n_hits": 5,
        "hits": [
          {
            "name": "The Street",
            "lat": 52.77147129872503,
            "lon": 1.2916732152495438,
            "in_la": "Broadland"
          },
          {
            "name": "The Street",
            "lat": 52.77207088954,
            "lon": 1.2912572296628508,
            "in_la": "Broadland"
          },
          {
            "name": "The Street",
            "lat": 52.772175276171545,
            "lon": 1.2915238026516285,
            "in_la": "Broadland"
          },
          {
            "name": "The Street",
            "lat": 52.77340253539148,
            "lon": 1.289289722805557,
            "in_la": "Broadland"
          },
          {
            "name": "The Street",
            "lat": 52.77881774809613,
            "lon": 1.2897218071786984,
            "in_la": "Broadland"
          }
        ]
      }
    },
    {
      "turn": 7,
      "role": "response",
      "kind": "ThinkingPart",
      "text": ""
    },
    {
      "turn": 7,
      "role": "response",
      "kind": "ToolCallPart",
      "tool": "la_check",
      "args": {
        "lon": 1.027,
        "lat": 52.7885,
        "la": "Broadland"
      }
    },
    {
      "turn": 8,
      "role": "request",
      "kind": "ToolReturnPart",
      "tool": "la_check",
      "return": {
        "success": true,
        "lat": 52.7885,
        "lon": 1.027,
        "la": "Broadland",
        "inside_la": true,
        "distance_km_approx": 0.0,
        "la_centroid_lat": 52.70119443642098,
        "la_centroid_lon": 1.3101886931294198
      }
    },
    {
      "turn": 9,
      "role": "response",
      "kind": "ThinkingPart",
      "text": ""
    },
    {
      "turn": 9,
      "role": "response",
      "kind": "ToolCallPart",
      "tool": "final_result",
      "args": {
        "evidence": "The site is identified as Foulsham Airfield, located north of Foulsham village. The map shows 'Barnards Farm' adjacent to the site. Geocoding Guestwick Road (which runs through the former airfield) and Foulsham village provides a consistent area. The picked coordinate is on the former airfield site near Barnards Farm.",
        "top_lon": 1.027,
        "verified_inside_admin_region": true,
        "top_lat": 52.7885,
        "confidence": "med",
        "sigma_m": 1000,
        "picked_source": "place:Foulsham Airfield (via Guestwick Rd)"
      }
    },
    {
      "turn": 10,
      "role": "request",
      "kind": "ToolReturnPart",
      "tool": "final_result",
      "return": "Final result processed."
    }
  ]
}