{
  "case": "A4D10",
  "config": {
    "disabled_tools": [
      "intersect"
    ],
    "locate_model": "gemini-flash"
  },
  "pick": {
    "top_lat": 51.507348,
    "top_lon": -2.631074,
    "sigma_m": 400,
    "confidence": "high",
    "picked_source": "place:Henbury",
    "evidence": "The map shows the Henbury Conservation Area centered around the junction of Henbury Road, Station Road, and Kings Weston Road. The 'Henbury' suburban area place hit (51.5073, -2.6311) aligns perfectly with these road names and landmarks like St Mary's Church and Blaise Castle House visible on the map.",
    "verified_inside_admin_region": true
  },
  "err_km": 0.14053321323043022,
  "gt_centroids": [
    {
      "lat": 51.506426833001946,
      "lon": -2.629683770493267
    }
  ],
  "trajectory_stats": {
    "tool_calls": {
      "place": 8,
      "road": 3,
      "la_check": 1,
      "final_result": 1
    },
    "total_tool_calls": 13,
    "n_turns": 13,
    "validator_retries": 0
  },
  "trajectory": [
    {
      "turn": 0,
      "role": "request",
      "kind": "UserPromptPart",
      "user_summary": "1 text + 1 images"
    },
    {
      "turn": 1,
      "role": "response",
      "kind": "ThinkingPart",
      "text": ""
    },
    {
      "turn": 1,
      "role": "response",
      "kind": "ToolCallPart",
      "tool": "place",
      "args": {
        "query": "Henbury Conservation Area",
        "la": "Bristol"
      }
    },
    {
      "turn": 1,
      "role": "response",
      "kind": "ToolCallPart",
      "tool": "place",
      "args": {
        "la": "Bristol",
        "query": "St Mary's Church Henbury"
      }
    },
    {
      "turn": 1,
      "role": "response",
      "kind": "ToolCallPart",
      "tool": "place",
      "args": {
        "la": "Bristol",
        "query": "Blaise Castle House"
      }
    },
    {
      "turn": 1,
      "role": "response",
      "kind": "ToolCallPart",
      "tool": "road",
      "args": {
        "la": "Bristol",
        "query": "Henbury Road"
      }
    },
    {
      "turn": 2,
      "role": "request",
      "kind": "ToolReturnPart",
      "tool": "place",
      "return": {
        "success": true,
        "query": "Henbury Conservation Area",
        "la_filter": "Bristol",
        "n_hits": 0,
        "hits": []
      }
    },
    {
      "turn": 2,
      "role": "request",
      "kind": "ToolReturnPart",
      "tool": "place",
      "return": {
        "success": true,
        "query": "St Mary's Church Henbury",
        "la_filter": "Bristol",
        "n_hits": 0,
        "hits": []
      }
    },
    {
      "turn": 2,
      "role": "request",
      "kind": "ToolReturnPart",
      "tool": "place",
      "return": {
        "success": true,
        "query": "Blaise Castle House",
        "la_filter": "Bristol",
        "n_hits": 0,
        "hits": []
      }
    },
    {
      "turn": 2,
      "role": "request",
      "kind": "ToolReturnPart",
      "tool": "road",
      "return": {
        "success": true,
        "query": "Henbury Road",
        "la_filter": "Bristol",
        "n_hits": 5,
        "hits": [
          {
            "name": "Henbury Road",
            "lat": 51.4952693515297,
            "lon": -2.618129466016623,
            "in_la": "Bristol"
          },
          {
            "name": "Henbury Road",
            "lat": 51.49575582487009,
            "lon": -2.618805881514322,
            "in_la": "Bristol"
          },
          {
            "name": "Henbury Road",
            "lat": 51.50118134530906,
            "lon": -2.622771436360717,
            "in_la": "Bristol"
          },
          {
            "name": "Henbury Road",
            "lat": 51.507185494005654,
            "lon": -2.629795248667184,
            "in_la": "Bristol"
          },
          {
            "name": "Henbury Road",
            "lat": 51.50668027818905,
            "lon": -2.628433957699821,
            "in_la": "Bristol"
          }
        ]
      }
    },
    {
      "turn": 3,
      "role": "response",
      "kind": "ThinkingPart",
      "text": ""
    },
    {
      "turn": 3,
      "role": "response",
      "kind": "ToolCallPart",
      "tool": "place",
      "args": {
        "query": "Henbury School",
        "la": "Bristol"
      }
    },
    {
      "turn": 3,
      "role": "response",
      "kind": "ToolCallPart",
      "tool": "place",
      "args": {
        "query": "Salutation Hotel",
        "la": "Bristol"
      }
    },
    {
      "turn": 3,
      "role": "response",
      "kind": "ToolCallPart",
      "tool": "place",
      "args": {
        "la": "Bristol",
        "query": "St Mary's Church"
      }
    },
    {
      "turn": 3,
      "role": "response",
      "kind": "ToolCallPart",
      "tool": "place",
      "args": {
        "query": "Blaise Castle Estate",
        "la": "Bristol"
      }
    },
    {
      "turn": 4,
      "role": "request",
      "kind": "ToolReturnPart",
      "tool": "place",
      "return": {
        "success": true,
        "query": "Henbury School",
        "la_filter": "Bristol",
        "n_hits": 0,
        "hits": []
      }
    },
    {
      "turn": 4,
      "role": "request",
      "kind": "ToolReturnPart",
      "tool": "place",
      "return": {
        "success": true,
        "query": "Salutation Hotel",
        "la_filter": "Bristol",
        "n_hits": 0,
        "hits": []
      }
    },
    {
      "turn": 4,
      "role": "request",
      "kind": "ToolReturnPart",
      "tool": "place",
      "return": {
        "success": true,
        "query": "St Mary's Church",
        "la_filter": "Bristol",
        "n_hits": 5,
        "hits": [
          {
            "name": "St Mary's Church of England Middle School",
            "type": "secondary education",
            "lat": 55.595904776618646,
            "lon": -1.8336895459423261,
            "admin_district": null,
            "county": "Northumberland"
          },
          {
            "name": "St Mary's Church of England (Aided) Primary School",
            "type": "primary education",
            "lat": 54.54202858506188,
            "lon": -1.4124556665022188,
            "admin_district": null,
            "county": "Stockton-on-Tees"
          },
          {
            "name": "St Mary's Church of England Primary School",
            "type": "primary education",
            "lat": 53.64379459121052,
            "lon": -2.7230374864941354,
            "admin_district": "Chorley",
            "county": "Lancashire"
          },
          {
            "name": "St Mary's Church of England Primary School",
            "type": "primary education",
            "lat": 53.63082780312219,
            "lon": -2.364184305273691,
            "admin_district": "Bury",
            "county": null
          },
          {
            "name": "St Mary's Church of England Primary School",
            "type": "primary education",
            "lat": 53.525692768040976,
            "lon": -2.5981905389819877,
            "admin_district": "Wigan",
            "county": null
          }
        ]
      }
    },
    {
      "turn": 4,
      "role": "request",
      "kind": "ToolReturnPart",
      "tool": "place",
      "return": {
        "success": true,
        "query": "Blaise Castle Estate",
        "la_filter": "Bristol",
        "n_hits": 0,
        "hits": []
      }
    },
    {
      "turn": 5,
      "role": "response",
      "kind": "ThinkingPart",
      "text": ""
    },
    {
      "turn": 5,
      "role": "response",
      "kind": "ToolCallPart",
      "tool": "place",
      "args": {
        "query": "Henbury"
      }
    },
    {
      "turn": 5,
      "role": "response",
      "kind": "ToolCallPart",
      "tool": "road",
      "args": {
        "query": "Station Road",
        "la": "Bristol"
      }
    },
    {
      "turn": 6,
      "role": "request",
      "kind": "ToolReturnPart",
      "tool": "place",
      "return": {
        "success": true,
        "query": "Henbury",
        "la_filter": null,
        "n_hits": 5,
        "hits": [
          {
            "name": "Henbury",
            "type": "village",
            "lat": 53.260405039690134,
            "lon": -2.1821276540661003,
            "admin_district": null,
            "county": "Cheshire East"
          },
          {
            "name": "Henbury",
            "type": "suburban area",
            "lat": 51.50734833358625,
            "lon": -2.631074174636513,
            "admin_district": null,
            "county": "City of Bristol"
          },
          {
            "name": "Henbury",
            "type": "railway station",
            "lat": 51.51490690612339,
            "lon": -2.624981910736743,
            "admin_district": null,
            "county": "South Gloucestershire"
          },
          {
            "name": "Henbury",
            "type": "village",
            "lat": 50.78655298241892,
            "lon": -2.0556272819291155,
            "admin_district": null,
            "county": "Dorset"
          },
          {
            "name": "Henbury Street",
            "type": "named road",
            "lat": 53.805568672595356,
            "lon": -1.5323695135098587,
            "admin_district": "Leeds",
            "county": null
          }
        ]
      }
    },
    {
      "turn": 6,
      "role": "request",
      "kind": "ToolReturnPart",
      "tool": "road",
      "return": {
        "success": true,
        "query": "Station Road",
        "la_filter": "Bristol",
        "n_hits": 5,
        "hits": [
          {
            "name": "Station Road",
            "lat": 51.47904444871479,
            "lon": -2.5297918400547146,
            "in_la": "Bristol"
          },
          {
            "name": "Station Road",
            "lat": 51.479315602572406,
            "lon": -2.530465004713594,
            "in_la": "Bristol"
          },
          {
            "name": "Station Road",
            "lat": 51.47933384312192,
            "lon": -2.530318698653005,
            "in_la": "Bristol"
          },
          {
            "name": "Station Road",
            "lat": 51.479493893870426,
            "lon": -2.5305768727662246,
            "in_la": "Bristol"
          },
          {
            "name": "Station Road",
            "lat": 51.4679404754565,
            "lon": -2.5892721136122105,
            "in_la": "Bristol"
          }
        ]
      }
    },
    {
      "turn": 7,
      "role": "response",
      "kind": "ThinkingPart",
      "text": ""
    },
    {
      "turn": 7,
      "role": "response",
      "kind": "ToolCallPart",
      "tool": "la_check",
      "args": {
        "lat": 51.5073483335863,
        "lon": -2.63107417463651,
        "la": "Bristol"
      }
    },
    {
      "turn": 8,
      "role": "request",
      "kind": "ToolReturnPart",
      "tool": "la_check",
      "return": {
        "success": true,
        "lat": 51.5073483335863,
        "lon": -2.63107417463651,
        "la": "Bristol",
        "inside_la": true,
        "distance_km_approx": 0.0,
        "la_centroid_lat": 51.452561432043865,
        "la_centroid_lon": -2.7711276870856563
      }
    },
    {
      "turn": 9,
      "role": "response",
      "kind": "ThinkingPart",
      "text": ""
    },
    {
      "turn": 9,
      "role": "response",
      "kind": "ToolCallPart",
      "tool": "road",
      "args": {
        "query": "Kings Weston Road",
        "la": "Bristol"
      }
    },
    {
      "turn": 10,
      "role": "request",
      "kind": "ToolReturnPart",
      "tool": "road",
      "return": {
        "success": true,
        "query": "Kings Weston Road",
        "la_filter": "Bristol",
        "n_hits": 5,
        "hits": [
          {
            "name": "Kings Weston Road",
            "lat": 51.505877575461724,
            "lon": -2.6352629895373765,
            "in_la": "Bristol"
          },
          {
            "name": "Kings Weston Road",
            "lat": 51.506281788539866,
            "lon": -2.6337682010936274,
            "in_la": "Bristol"
          },
          {
            "name": "Kings Weston Road",
            "lat": 51.506547934580354,
            "lon": -2.632928426300631,
            "in_la": "Bristol"
          },
          {
            "name": "Kings Weston Road",
            "lat": 51.50429247802176,
            "lon": -2.6416072012362473,
            "in_la": "Bristol"
          },
          {
            "name": "Kings Weston Road",
            "lat": 51.50421633134361,
            "lon": -2.641555704491008,
            "in_la": "Bristol"
          }
        ]
      }
    },
    {
      "turn": 11,
      "role": "response",
      "kind": "ThinkingPart",
      "text": ""
    },
    {
      "turn": 11,
      "role": "response",
      "kind": "ToolCallPart",
      "tool": "final_result",
      "args": {
        "evidence": "The map shows the Henbury Conservation Area centered around the junction of Henbury Road, Station Road, and Kings Weston Road. The 'Henbury' suburban area place hit (51.5073, -2.6311) aligns perfectly with these road names and landmarks like St Mary's Church and Blaise Castle House visible on the map.",
        "top_lat": 51.507348,
        "confidence": "high",
        "verified_inside_admin_region": true,
        "top_lon": -2.631074,
        "sigma_m": 400,
        "picked_source": "place:Henbury"
      }
    },
    {
      "turn": 12,
      "role": "request",
      "kind": "ToolReturnPart",
      "tool": "final_result",
      "return": "Final result processed."
    }
  ]
}