{
  "case": "A4Da3",
  "config": {
    "disabled_tools": [
      "intersect"
    ],
    "locate_model": "gemini-flash"
  },
  "pick": {
    "top_lat": 52.496396,
    "top_lon": -2.045206,
    "sigma_m": 400,
    "confidence": "high",
    "picked_source": "road:Portway Hill",
    "evidence": "The site is 'Land off Portway Hill'. Multiple road centroids for Portway Hill in Sandwell cluster around 52.496, -2.045. Postcode B69 3DE is nearby (approx 2.5km) but the road name match is more specific to the map's visual context.",
    "verified_inside_admin_region": true
  },
  "err_km": 0.2165409212383499,
  "gt_centroids": [
    {
      "lat": 52.49812701784881,
      "lon": -2.043740565824094
    }
  ],
  "trajectory_stats": {
    "tool_calls": {
      "postcode": 2,
      "place": 3,
      "road": 1,
      "la_check": 1,
      "final_result": 1
    },
    "total_tool_calls": 8,
    "n_turns": 7,
    "validator_retries": 0
  },
  "trajectory": [
    {
      "turn": 0,
      "role": "request",
      "kind": "UserPromptPart",
      "user_summary": "1 text + 1 images"
    },
    {
      "turn": 1,
      "role": "response",
      "kind": "ThinkingPart",
      "text": ""
    },
    {
      "turn": 1,
      "role": "response",
      "kind": "ToolCallPart",
      "tool": "postcode",
      "args": {
        "pc": "B69 3DE"
      }
    },
    {
      "turn": 1,
      "role": "response",
      "kind": "ToolCallPart",
      "tool": "postcode",
      "args": {
        "pc": "B3 2PW"
      }
    },
    {
      "turn": 1,
      "role": "response",
      "kind": "ToolCallPart",
      "tool": "place",
      "args": {
        "query": "Portway Hill",
        "la": "Sandwell"
      }
    },
    {
      "turn": 1,
      "role": "response",
      "kind": "ToolCallPart",
      "tool": "place",
      "args": {
        "query": "Pancake Quarry",
        "la": "Sandwell"
      }
    },
    {
      "turn": 2,
      "role": "request",
      "kind": "ToolReturnPart",
      "tool": "postcode",
      "return": {
        "success": true,
        "postcode": "B69 3DE",
        "lat": 52.50399198681494,
        "lon": -2.0090607357811634,
        "admin_district": "Sandwell District (B)"
      }
    },
    {
      "turn": 2,
      "role": "request",
      "kind": "ToolReturnPart",
      "tool": "postcode",
      "return": {
        "success": true,
        "postcode": "B3 2PW",
        "lat": 52.48182422787335,
        "lon": -1.8978255929933123,
        "admin_district": "Birmingham District (B)"
      }
    },
    {
      "turn": 2,
      "role": "request",
      "kind": "ToolReturnPart",
      "tool": "place",
      "return": {
        "success": true,
        "query": "Portway Hill",
        "la_filter": "Sandwell",
        "n_hits": 1,
        "hits": [
          {
            "name": "Portway Hill",
            "type": "named road",
            "lat": 52.49639612015624,
            "lon": -2.0452055065874784,
            "admin_district": "Sandwell",
            "county": null
          }
        ]
      }
    },
    {
      "turn": 2,
      "role": "request",
      "kind": "ToolReturnPart",
      "tool": "place",
      "return": {
        "success": true,
        "query": "Pancake Quarry",
        "la_filter": "Sandwell",
        "n_hits": 0,
        "hits": []
      }
    },
    {
      "turn": 3,
      "role": "response",
      "kind": "ThinkingPart",
      "text": ""
    },
    {
      "turn": 3,
      "role": "response",
      "kind": "ToolCallPart",
      "tool": "place",
      "args": {
        "la": "Sandwell",
        "query": "Turners Hill"
      }
    },
    {
      "turn": 3,
      "role": "response",
      "kind": "ToolCallPart",
      "tool": "road",
      "args": {
        "query": "Portway Hill",
        "la": "Sandwell"
      }
    },
    {
      "turn": 3,
      "role": "response",
      "kind": "ToolCallPart",
      "tool": "la_check",
      "args": {
        "lon": -2.04520550658748,
        "la": "Sandwell",
        "lat": 52.4963961201562
      }
    },
    {
      "turn": 4,
      "role": "request",
      "kind": "ToolReturnPart",
      "tool": "place",
      "return": {
        "success": true,
        "query": "Turners Hill",
        "la_filter": "Sandwell",
        "n_hits": 5,
        "hits": [
          {
            "name": "Turners Hill",
            "type": "named road",
            "lat": 51.75038174929487,
            "lon": -0.4611695754765866,
            "admin_district": "Dacorum",
            "county": "Hertfordshire"
          },
          {
            "name": "Turners Hill",
            "type": "village",
            "lat": 51.10393113899737,
            "lon": -0.08524993772797465,
            "admin_district": "Mid Sussex",
            "county": "West Sussex"
          },
          {
            "name": "Turners Hill Road",
            "type": "named road",
            "lat": 52.44582983926954,
            "lon": -2.8408977089999734,
            "admin_district": null,
            "county": "Shropshire"
          },
          {
            "name": "Turners Hill Road",
            "type": "named road",
            "lat": 52.52383975779669,
            "lon": -2.132295678675848,
            "admin_district": "Dudley",
            "county": null
          },
          {
            "name": "Turners Hill Road",
            "type": "section of named road",
            "lat": 51.11604852830364,
            "lon": -0.14290149682607622,
            "admin_district": "Crawley",
            "county": "West Sussex"
          }
        ]
      }
    },
    {
      "turn": 4,
      "role": "request",
      "kind": "ToolReturnPart",
      "tool": "road",
      "return": {
        "success": true,
        "query": "Portway Hill",
        "la_filter": "Sandwell",
        "n_hits": 5,
        "hits": [
          {
            "name": "Portway Hill",
            "lat": 52.49431196364536,
            "lon": -2.0410939995092474,
            "in_la": "Sandwell"
          },
          {
            "name": "Portway Hill",
            "lat": 52.49549345505456,
            "lon": -2.043009913631572,
            "in_la": "Sandwell"
          },
          {
            "name": "Portway Hill",
            "lat": 52.4949948627014,
            "lon": -2.042044667635475,
            "in_la": "Sandwell"
          },
          {
            "name": "Portway Hill",
            "lat": 52.49898813771186,
            "lon": -2.0491412085784306,
            "in_la": "Sandwell"
          },
          {
            "name": "Portway Hill",
            "lat": 52.498227905521816,
            "lon": -2.0479392568985086,
            "in_la": "Sandwell"
          }
        ]
      }
    },
    {
      "turn": 4,
      "role": "request",
      "kind": "ToolReturnPart",
      "tool": "la_check",
      "return": {
        "success": true,
        "lat": 52.4963961201562,
        "lon": -2.04520550658748,
        "la": "Sandwell",
        "inside_la": true,
        "distance_km_approx": 0.0,
        "la_centroid_lat": 52.51544066566969,
        "la_centroid_lon": -2.008954795482069
      }
    },
    {
      "turn": 5,
      "role": "response",
      "kind": "ThinkingPart",
      "text": ""
    },
    {
      "turn": 5,
      "role": "response",
      "kind": "ToolCallPart",
      "tool": "final_result",
      "args": {
        "picked_source": "road:Portway Hill",
        "top_lat": 52.496396,
        "top_lon": -2.045206,
        "sigma_m": 400,
        "evidence": "The site is 'Land off Portway Hill'. Multiple road centroids for Portway Hill in Sandwell cluster around 52.496, -2.045. Postcode B69 3DE is nearby (approx 2.5km) but the road name match is more specific to the map's visual context.",
        "verified_inside_admin_region": true,
        "confidence": "high"
      }
    },
    {
      "turn": 6,
      "role": "request",
      "kind": "ToolReturnPart",
      "tool": "final_result",
      "return": "Final result processed."
    }
  ]
}