{
  "case": "FA067403-6115-4489-9ED0-2CF26FC2D299",
  "config": {
    "disabled_tools": [
      "intersect"
    ],
    "locate_model": "gemini-flash"
  },
  "pick": {
    "top_lat": 51.30806,
    "top_lon": 1.2619,
    "sigma_m": 400,
    "confidence": "high",
    "picked_source": "place:Westmarsh Drove",
    "evidence": "The map explicitly references OS sheets TR2761 and TR2762. The site is 'Land North of Westmarsh Drove Farm' in Westmarsh. Geocoding 'Westmarsh' and 'Westmarsh Drove' places the site at the intersection of these grid squares. Postcode CT16 3PJ is the council office (letterhead).",
    "verified_inside_admin_region": true
  },
  "err_km": 0.4670892692649735,
  "gt_centroids": [
    {
      "lat": 51.31221627130935,
      "lon": 1.2628740529093625
    }
  ],
  "trajectory_stats": {
    "tool_calls": {
      "postcode": 1,
      "grid_ref": 2,
      "place": 2,
      "la_check": 1,
      "final_result": 1
    },
    "total_tool_calls": 7,
    "n_turns": 7,
    "validator_retries": 0
  },
  "trajectory": [
    {
      "turn": 0,
      "role": "request",
      "kind": "UserPromptPart",
      "user_summary": "1 text + 1 images"
    },
    {
      "turn": 1,
      "role": "response",
      "kind": "ThinkingPart",
      "text": ""
    },
    {
      "turn": 1,
      "role": "response",
      "kind": "ToolCallPart",
      "tool": "postcode",
      "args": {
        "pc": "CT16 3PJ"
      }
    },
    {
      "turn": 1,
      "role": "response",
      "kind": "ToolCallPart",
      "tool": "grid_ref",
      "args": {
        "gr": "TR2761"
      }
    },
    {
      "turn": 1,
      "role": "response",
      "kind": "ToolCallPart",
      "tool": "grid_ref",
      "args": {
        "gr": "TR2762"
      }
    },
    {
      "turn": 1,
      "role": "response",
      "kind": "ToolCallPart",
      "tool": "place",
      "args": {
        "la": "Dover",
        "query": "Westmarsh Drove Farm"
      }
    },
    {
      "turn": 1,
      "role": "response",
      "kind": "ToolCallPart",
      "tool": "place",
      "args": {
        "query": "Westmarsh",
        "la": "Dover"
      }
    },
    {
      "turn": 2,
      "role": "request",
      "kind": "ToolReturnPart",
      "tool": "postcode",
      "return": {
        "success": true,
        "postcode": "CT16 3PJ",
        "lat": 51.15436636168577,
        "lon": 1.294785094400513,
        "admin_district": "Dover District"
      }
    },
    {
      "turn": 2,
      "role": "request",
      "kind": "ToolReturnPart",
      "tool": "grid_ref",
      "return": {
        "success": true,
        "grid_ref": "TR2761",
        "lat": 51.30712215966077,
        "lon": 1.26264172433534
      }
    },
    {
      "turn": 2,
      "role": "request",
      "kind": "ToolReturnPart",
      "tool": "grid_ref",
      "return": {
        "success": true,
        "grid_ref": "TR2762",
        "lat": 51.31609932366517,
        "lon": 1.2632790840649746
      }
    },
    {
      "turn": 2,
      "role": "request",
      "kind": "ToolReturnPart",
      "tool": "place",
      "return": {
        "success": true,
        "query": "Westmarsh Drove Farm",
        "la_filter": "Dover",
        "n_hits": 0,
        "hits": []
      }
    },
    {
      "turn": 2,
      "role": "request",
      "kind": "ToolReturnPart",
      "tool": "place",
      "return": {
        "success": true,
        "query": "Westmarsh",
        "la_filter": "Dover",
        "n_hits": 3,
        "hits": [
          {
            "name": "Westmarsh",
            "type": "village",
            "lat": 51.30613155743706,
            "lon": 1.265585008858779,
            "admin_district": "Dover",
            "county": "Kent"
          },
          {
            "name": "Westmarsh Drove",
            "type": "section of named road",
            "lat": 51.30806019505709,
            "lon": 1.2619046486411476,
            "admin_district": "Dover",
            "county": "Kent"
          },
          {
            "name": "Westmarsh Drove",
            "type": "named road",
            "lat": 51.31154588349034,
            "lon": 1.2636733653018304,
            "admin_district": "Dover",
            "county": "Kent"
          }
        ]
      }
    },
    {
      "turn": 3,
      "role": "response",
      "kind": "ThinkingPart",
      "text": ""
    },
    {
      "turn": 3,
      "role": "response",
      "kind": "ToolCallPart",
      "tool": "la_check",
      "args": {
        "la": "Dover",
        "lon": 1.2619,
        "lat": 51.30806
      }
    },
    {
      "turn": 4,
      "role": "request",
      "kind": "ToolReturnPart",
      "tool": "la_check",
      "return": {
        "success": true,
        "lat": 51.30806,
        "lon": 1.2619,
        "la": "Dover",
        "inside_la": true,
        "distance_km_approx": 0.0,
        "la_centroid_lat": 51.211897922259524,
        "la_centroid_lon": 1.2887390013267443
      }
    },
    {
      "turn": 5,
      "role": "response",
      "kind": "ThinkingPart",
      "text": ""
    },
    {
      "turn": 5,
      "role": "response",
      "kind": "ToolCallPart",
      "tool": "final_result",
      "args": {
        "evidence": "The map explicitly references OS sheets TR2761 and TR2762. The site is 'Land North of Westmarsh Drove Farm' in Westmarsh. Geocoding 'Westmarsh' and 'Westmarsh Drove' places the site at the intersection of these grid squares. Postcode CT16 3PJ is the council office (letterhead).",
        "picked_source": "place:Westmarsh Drove",
        "sigma_m": 400,
        "top_lat": 51.30806,
        "confidence": "high",
        "top_lon": 1.2619,
        "verified_inside_admin_region": true
      }
    },
    {
      "turn": 6,
      "role": "request",
      "kind": "ToolReturnPart",
      "tool": "final_result",
      "return": "Final result processed."
    }
  ]
}