{
  "case": "12:00128:ART4",
  "config": {
    "disabled_tools": [
      "grid_ref",
      "intersect",
      "postcode",
      "road"
    ],
    "locate_model": "gemini-flash"
  },
  "pick": {
    "top_lat": 52.486,
    "top_lon": 1.303,
    "sigma_m": 500,
    "confidence": "high",
    "picked_source": "place:Lundy Green",
    "evidence": "The map shows a large site north of Lundy Green and Turkey Row in Hempnall. Lundy Green was geocoded to 52.4839, 1.3007. The site boundary is immediately north of this hamlet.",
    "verified_inside_admin_region": true
  },
  "err_km": 0.28824729099582846,
  "gt_centroids": [
    {
      "lat": 52.486652248996606,
      "lon": 1.3071199907177589
    },
    {
      "lat": 52.48418898990687,
      "lon": 1.309110521940893
    },
    {
      "lat": 52.48489031704312,
      "lon": 1.3079148809396939
    }
  ],
  "trajectory_stats": {
    "tool_calls": {
      "place": 5,
      "la_check": 1,
      "final_result": 1
    },
    "total_tool_calls": 7,
    "n_turns": 9,
    "validator_retries": 0
  },
  "trajectory": [
    {
      "turn": 0,
      "role": "request",
      "kind": "UserPromptPart",
      "user_summary": "1 text + 1 images"
    },
    {
      "turn": 1,
      "role": "response",
      "kind": "ThinkingPart",
      "text": ""
    },
    {
      "turn": 1,
      "role": "response",
      "kind": "ToolCallPart",
      "tool": "place",
      "args": {
        "la": "South Norfolk",
        "query": "Turkey Row"
      }
    },
    {
      "turn": 1,
      "role": "response",
      "kind": "ToolCallPart",
      "tool": "place",
      "args": {
        "query": "Lundy Green",
        "la": "South Norfolk"
      }
    },
    {
      "turn": 1,
      "role": "response",
      "kind": "ToolCallPart",
      "tool": "place",
      "args": {
        "query": "Hempnall House",
        "la": "South Norfolk"
      }
    },
    {
      "turn": 2,
      "role": "request",
      "kind": "ToolReturnPart",
      "tool": "place",
      "return": {
        "success": true,
        "query": "Turkey Row",
        "la_filter": "South Norfolk",
        "n_hits": 0,
        "hits": []
      }
    },
    {
      "turn": 2,
      "role": "request",
      "kind": "ToolReturnPart",
      "tool": "place",
      "return": {
        "success": true,
        "query": "Lundy Green",
        "la_filter": "South Norfolk",
        "n_hits": 1,
        "hits": [
          {
            "name": "Lundy Green",
            "type": "hamlet",
            "lat": 52.4839270584857,
            "lon": 1.3006848045958799,
            "admin_district": "South Norfolk",
            "county": "Norfolk"
          }
        ]
      }
    },
    {
      "turn": 2,
      "role": "request",
      "kind": "ToolReturnPart",
      "tool": "place",
      "return": {
        "success": true,
        "query": "Hempnall House",
        "la_filter": "South Norfolk",
        "n_hits": 0,
        "hits": []
      }
    },
    {
      "turn": 3,
      "role": "response",
      "kind": "ThinkingPart",
      "text": ""
    },
    {
      "turn": 3,
      "role": "response",
      "kind": "ToolCallPart",
      "tool": "place",
      "args": {
        "la": "South Norfolk",
        "query": "Hempnall"
      }
    },
    {
      "turn": 3,
      "role": "response",
      "kind": "ToolCallPart",
      "tool": "place",
      "args": {
        "la": "South Norfolk",
        "query": "Pear Tree Farm"
      }
    },
    {
      "turn": 4,
      "role": "request",
      "kind": "ToolReturnPart",
      "tool": "place",
      "return": {
        "success": true,
        "query": "Hempnall",
        "la_filter": "South Norfolk",
        "n_hits": 5,
        "hits": [
          {
            "name": "Hempnall",
            "type": "village",
            "lat": 52.50247456802341,
            "lon": 1.2983464851444433,
            "admin_district": "South Norfolk",
            "county": "Norfolk"
          },
          {
            "name": "Hempnall Green",
            "type": "village",
            "lat": 52.48583390057944,
            "lon": 1.3116117784378567,
            "admin_district": "South Norfolk",
            "county": "Norfolk"
          },
          {
            "name": "Hempnall Road",
            "type": "named road",
            "lat": 52.49595357538416,
            "lon": 1.3663208813130812,
            "admin_district": "South Norfolk",
            "county": "Norfolk"
          },
          {
            "name": "Hempnall Road",
            "type": "section of named road",
            "lat": 52.495446364169,
            "lon": 1.3749615217184827,
            "admin_district": "South Norfolk",
            "county": "Norfolk"
          },
          {
            "name": "Hempnall Primary School",
            "type": "primary education",
            "lat": 52.503328015440765,
            "lon": 1.2983809498976198,
            "admin_district": "South Norfolk",
            "county": "Norfolk"
          }
        ]
      }
    },
    {
      "turn": 4,
      "role": "request",
      "kind": "ToolReturnPart",
      "tool": "place",
      "return": {
        "success": true,
        "query": "Pear Tree Farm",
        "la_filter": "South Norfolk",
        "n_hits": 1,
        "hits": [
          {
            "name": "Pear Tree Farm",
            "type": "named road",
            "lat": 53.66627521002347,
            "lon": -2.6671968890344826,
            "admin_district": "Chorley",
            "county": "Lancashire"
          }
        ]
      }
    },
    {
      "turn": 5,
      "role": "response",
      "kind": "ThinkingPart",
      "text": ""
    },
    {
      "turn": 5,
      "role": "response",
      "kind": "ToolCallPart",
      "tool": "la_check",
      "args": {
        "lon": 1.300685,
        "lat": 52.483927,
        "la": "South Norfolk"
      }
    },
    {
      "turn": 6,
      "role": "request",
      "kind": "ToolReturnPart",
      "tool": "la_check",
      "return": {
        "success": true,
        "lat": 52.483927,
        "lon": 1.300685,
        "la": "South Norfolk",
        "inside_la": true,
        "distance_km_approx": 0.0,
        "la_centroid_lat": 52.51456820108335,
        "la_centroid_lon": 1.2759378849924117
      }
    },
    {
      "turn": 7,
      "role": "response",
      "kind": "ThinkingPart",
      "text": ""
    },
    {
      "turn": 7,
      "role": "response",
      "kind": "ToolCallPart",
      "tool": "final_result",
      "args": {
        "top_lat": 52.486,
        "verified_inside_admin_region": true,
        "picked_source": "place:Lundy Green",
        "evidence": "The map shows a large site north of Lundy Green and Turkey Row in Hempnall. Lundy Green was geocoded to 52.4839, 1.3007. The site boundary is immediately north of this hamlet.",
        "sigma_m": 500,
        "confidence": "high",
        "top_lon": 1.303
      }
    },
    {
      "turn": 8,
      "role": "request",
      "kind": "ToolReturnPart",
      "tool": "final_result",
      "return": "Final result processed."
    }
  ]
}