{
  "case": "A4D12",
  "config": {
    "disabled_tools": [
      "grid_ref",
      "intersect",
      "postcode",
      "road"
    ],
    "locate_model": "gemini-flash"
  },
  "pick": {
    "top_lat": 51.4550215989269,
    "top_lon": -2.6167226769269,
    "sigma_m": 1500,
    "confidence": "med",
    "picked_source": "place:Victoria Square",
    "evidence": "The map covers a large area of Clifton and Hotwells. Victoria Square is centrally located within the red-outlined area on the map. The coordinate is verified within the Bristol Local Authority.",
    "verified_inside_admin_region": true
  },
  "err_km": 0.29611765258517825,
  "gt_centroids": [
    {
      "lat": 51.4558343110282,
      "lon": -2.6207925098892026
    }
  ],
  "trajectory_stats": {
    "tool_calls": {
      "place": 3,
      "la_check": 1,
      "final_result": 1
    },
    "total_tool_calls": 5,
    "n_turns": 9,
    "validator_retries": 0
  },
  "trajectory": [
    {
      "turn": 0,
      "role": "request",
      "kind": "UserPromptPart",
      "user_summary": "1 text + 1 images"
    },
    {
      "turn": 1,
      "role": "response",
      "kind": "ThinkingPart",
      "text": ""
    },
    {
      "turn": 1,
      "role": "response",
      "kind": "ToolCallPart",
      "tool": "place",
      "args": {
        "la": "Bristol",
        "query": "Clifton"
      }
    },
    {
      "turn": 1,
      "role": "response",
      "kind": "ToolCallPart",
      "tool": "place",
      "args": {
        "query": "Hotwells",
        "la": "Bristol"
      }
    },
    {
      "turn": 2,
      "role": "request",
      "kind": "ToolReturnPart",
      "tool": "place",
      "return": {
        "success": true,
        "query": "Clifton",
        "la_filter": "Bristol",
        "n_hits": 5,
        "hits": [
          {
            "name": "Clifton",
            "type": "suburban area",
            "lat": 51.46183013774923,
            "lon": -2.616368258143215,
            "admin_district": null,
            "county": "City of Bristol"
          },
          {
            "name": "Clifton Wood",
            "type": "suburban area",
            "lat": 51.453088991525824,
            "lon": -2.6148976783581803,
            "admin_district": null,
            "county": "City of Bristol"
          },
          {
            "name": "Clifton Park",
            "type": "named road",
            "lat": 51.45822206028217,
            "lon": -2.6185361886543044,
            "admin_district": null,
            "county": "City of Bristol"
          },
          {
            "name": "Clifton Down",
            "type": "named road",
            "lat": 51.46145143207009,
            "lon": -2.6250572530379954,
            "admin_district": null,
            "county": "City of Bristol"
          },
          {
            "name": "Cliftonwood Terrace",
            "type": "named road",
            "lat": 51.45002069923455,
            "lon": -2.613590069913852,
            "admin_district": null,
            "county": "City of Bristol"
          }
        ]
      }
    },
    {
      "turn": 2,
      "role": "request",
      "kind": "ToolReturnPart",
      "tool": "place",
      "return": {
        "success": true,
        "query": "Hotwells",
        "la_filter": "Bristol",
        "n_hits": 2,
        "hits": [
          {
            "name": "Hotwells",
            "type": "suburban area",
            "lat": 51.45090743562386,
            "lon": -2.6210708307875143,
            "admin_district": null,
            "county": "City of Bristol"
          },
          {
            "name": "Hotwells Primary School",
            "type": "primary education",
            "lat": 51.450652254050006,
            "lon": -2.621714953244461,
            "admin_district": null,
            "county": "City of Bristol"
          }
        ]
      }
    },
    {
      "turn": 3,
      "role": "response",
      "kind": "ThinkingPart",
      "text": ""
    },
    {
      "turn": 3,
      "role": "response",
      "kind": "ToolCallPart",
      "tool": "place",
      "args": {
        "la": "Bristol",
        "query": "Victoria Square"
      }
    },
    {
      "turn": 4,
      "role": "request",
      "kind": "ToolReturnPart",
      "tool": "place",
      "return": {
        "success": true,
        "query": "Victoria Square",
        "la_filter": "Bristol",
        "n_hits": 1,
        "hits": [
          {
            "name": "Victoria Square",
            "type": "named road",
            "lat": 51.4550215989269,
            "lon": -2.6167226769269027,
            "admin_district": null,
            "county": "City of Bristol"
          }
        ]
      }
    },
    {
      "turn": 5,
      "role": "response",
      "kind": "ThinkingPart",
      "text": ""
    },
    {
      "turn": 5,
      "role": "response",
      "kind": "ToolCallPart",
      "tool": "la_check",
      "args": {
        "lon": -2.616,
        "lat": 51.455,
        "la": "Bristol"
      }
    },
    {
      "turn": 6,
      "role": "request",
      "kind": "ToolReturnPart",
      "tool": "la_check",
      "return": {
        "success": true,
        "lat": 51.455,
        "lon": -2.616,
        "la": "Bristol",
        "inside_la": true,
        "distance_km_approx": 0.0,
        "la_centroid_lat": 51.452561432043865,
        "la_centroid_lon": -2.7711276870856563
      }
    },
    {
      "turn": 7,
      "role": "response",
      "kind": "ThinkingPart",
      "text": ""
    },
    {
      "turn": 7,
      "role": "response",
      "kind": "ToolCallPart",
      "tool": "final_result",
      "args": {
        "evidence": "The map covers a large area of Clifton and Hotwells. Victoria Square is centrally located within the red-outlined area on the map. The coordinate is verified within the Bristol Local Authority.",
        "top_lat": 51.4550215989269,
        "sigma_m": 1500,
        "verified_inside_admin_region": true,
        "confidence": "med",
        "picked_source": "place:Victoria Square",
        "top_lon": -2.6167226769269
      }
    },
    {
      "turn": 8,
      "role": "request",
      "kind": "ToolReturnPart",
      "tool": "final_result",
      "return": "Final result processed."
    }
  ]
}