{
  "case": "A4D14",
  "config": {
    "disabled_tools": [
      "grid_ref",
      "intersect",
      "postcode",
      "road"
    ],
    "locate_model": "gemini-flash"
  },
  "pick": {
    "top_lat": 51.4859,
    "top_lon": -2.539,
    "sigma_m": 300,
    "confidence": "high",
    "picked_source": "grid_ref:ST 6276 362520E 176465N",
    "evidence": "The map and PDF info provide a specific grid reference (ST 6276 362520E 176465N) which converts to 51.4859, -2.539. This location is adjacent to Blackberry Hill Hospital and Blackberry Hill road in Stapleton, Bristol, matching all textual and visual cues.",
    "verified_inside_admin_region": true
  },
  "err_km": 0.1635606377556947,
  "gt_centroids": [
    {
      "lat": 51.48566575912615,
      "lon": -2.541332013595114
    }
  ],
  "trajectory_stats": {
    "tool_calls": {
      "place": 4,
      "la_check": 2,
      "final_result": 1
    },
    "total_tool_calls": 7,
    "n_turns": 9,
    "validator_retries": 0
  },
  "trajectory": [
    {
      "turn": 0,
      "role": "request",
      "kind": "UserPromptPart",
      "user_summary": "1 text + 1 images"
    },
    {
      "turn": 1,
      "role": "response",
      "kind": "ThinkingPart",
      "text": ""
    },
    {
      "turn": 1,
      "role": "response",
      "kind": "ToolCallPart",
      "tool": "place",
      "args": {
        "la": "Bristol",
        "query": "Grove Wood Blackberry Hill"
      }
    },
    {
      "turn": 1,
      "role": "response",
      "kind": "ToolCallPart",
      "tool": "place",
      "args": {
        "la": "Bristol",
        "query": "Blackberry Hill Stapleton"
      }
    },
    {
      "turn": 1,
      "role": "response",
      "kind": "ToolCallPart",
      "tool": "la_check",
      "args": {
        "la": "Bristol City Council",
        "lon": -2.539,
        "lat": 51.4859
      }
    },
    {
      "turn": 2,
      "role": "request",
      "kind": "ToolReturnPart",
      "tool": "place",
      "return": {
        "success": true,
        "query": "Grove Wood Blackberry Hill",
        "la_filter": "Bristol",
        "n_hits": 0,
        "hits": []
      }
    },
    {
      "turn": 2,
      "role": "request",
      "kind": "ToolReturnPart",
      "tool": "place",
      "return": {
        "success": true,
        "query": "Blackberry Hill Stapleton",
        "la_filter": "Bristol",
        "n_hits": 0,
        "hits": []
      }
    },
    {
      "turn": 2,
      "role": "request",
      "kind": "ToolReturnPart",
      "tool": "la_check",
      "return": {
        "success": true,
        "lat": 51.4859,
        "lon": -2.539,
        "la": "Bristol City Council",
        "inside_la": true,
        "distance_km_approx": 0.0,
        "la_centroid_lat": 51.452561432043865,
        "la_centroid_lon": -2.7711276870856563
      }
    },
    {
      "turn": 3,
      "role": "response",
      "kind": "ThinkingPart",
      "text": ""
    },
    {
      "turn": 3,
      "role": "response",
      "kind": "ToolCallPart",
      "tool": "place",
      "args": {
        "la": "Bristol",
        "query": "Blackberry Hill"
      }
    },
    {
      "turn": 3,
      "role": "response",
      "kind": "ToolCallPart",
      "tool": "place",
      "args": {
        "query": "Stapleton",
        "la": "Bristol"
      }
    },
    {
      "turn": 4,
      "role": "request",
      "kind": "ToolReturnPart",
      "tool": "place",
      "return": {
        "success": true,
        "query": "Blackberry Hill",
        "la_filter": "Bristol",
        "n_hits": 3,
        "hits": [
          {
            "name": "Blackberry Hill",
            "type": "named road",
            "lat": 51.483440861790235,
            "lon": -2.54478378234629,
            "admin_district": null,
            "county": "City of Bristol"
          },
          {
            "name": "Blackberry Hill",
            "type": "section of named road",
            "lat": 51.48588637509776,
            "lon": -2.546757188400573,
            "admin_district": null,
            "county": "City of Bristol"
          },
          {
            "name": "Blackberry Hill Hospital",
            "type": "hospital",
            "lat": 51.4848755898861,
            "lon": -2.5378449470562985,
            "admin_district": null,
            "county": "City of Bristol"
          }
        ]
      }
    },
    {
      "turn": 4,
      "role": "request",
      "kind": "ToolReturnPart",
      "tool": "place",
      "return": {
        "success": true,
        "query": "Stapleton",
        "la_filter": "Bristol",
        "n_hits": 4,
        "hits": [
          {
            "name": "Stapleton",
            "type": "village",
            "lat": 51.481299208333034,
            "lon": -2.554723336147487,
            "admin_district": null,
            "county": "City of Bristol"
          },
          {
            "name": "Stapleton Close",
            "type": "named road",
            "lat": 51.482149202658825,
            "lon": -2.5537112052201794,
            "admin_district": null,
            "county": "City of Bristol"
          },
          {
            "name": "Stapleton Road",
            "type": "named road",
            "lat": 51.46799528276957,
            "lon": -2.56711542746578,
            "admin_district": null,
            "county": "City of Bristol"
          },
          {
            "name": "Stapleton Road",
            "type": "railway station",
            "lat": 51.46758732927473,
            "lon": -2.56594428342116,
            "admin_district": null,
            "county": "City of Bristol"
          }
        ]
      }
    },
    {
      "turn": 5,
      "role": "response",
      "kind": "ThinkingPart",
      "text": ""
    },
    {
      "turn": 5,
      "role": "response",
      "kind": "ToolCallPart",
      "tool": "la_check",
      "args": {
        "lon": -2.53784,
        "lat": 51.48487,
        "la": "Bristol City Council"
      }
    },
    {
      "turn": 6,
      "role": "request",
      "kind": "ToolReturnPart",
      "tool": "la_check",
      "return": {
        "success": true,
        "lat": 51.48487,
        "lon": -2.53784,
        "la": "Bristol City Council",
        "inside_la": true,
        "distance_km_approx": 0.0,
        "la_centroid_lat": 51.452561432043865,
        "la_centroid_lon": -2.7711276870856563
      }
    },
    {
      "turn": 7,
      "role": "response",
      "kind": "ThinkingPart",
      "text": ""
    },
    {
      "turn": 7,
      "role": "response",
      "kind": "ToolCallPart",
      "tool": "final_result",
      "args": {
        "verified_inside_admin_region": true,
        "evidence": "The map and PDF info provide a specific grid reference (ST 6276 362520E 176465N) which converts to 51.4859, -2.539. This location is adjacent to Blackberry Hill Hospital and Blackberry Hill road in Stapleton, Bristol, matching all textual and visual cues.",
        "sigma_m": 300,
        "top_lat": 51.4859,
        "picked_source": "grid_ref:ST 6276 362520E 176465N",
        "confidence": "high",
        "top_lon": -2.539
      }
    },
    {
      "turn": 8,
      "role": "request",
      "kind": "ToolReturnPart",
      "tool": "final_result",
      "return": "Final result processed."
    }
  ]
}