{
  "case": "A4D6",
  "config": {
    "disabled_tools": [
      "grid_ref",
      "intersect",
      "postcode",
      "road"
    ],
    "locate_model": "gemini-flash"
  },
  "pick": {
    "top_lat": 51.47,
    "top_lon": -2.54,
    "sigma_m": 1500,
    "confidence": "high",
    "picked_source": "intersect:Eastville-Fishponds-Whitehall",
    "evidence": "The map shows a large Article 4 area in East Bristol. I geocoded the three main named areas (Eastville, Fishponds, Whitehall) which form a cluster. The center point 51.47, -2.54 sits centrally within this cluster and was verified inside the Bristol LA.",
    "verified_inside_admin_region": true
  },
  "err_km": 0.4540245957642088,
  "gt_centroids": [
    {
      "lat": 51.47223696915572,
      "lon": -2.545483701252686
    }
  ],
  "trajectory_stats": {
    "tool_calls": {
      "place": 3,
      "la_check": 1,
      "final_result": 1
    },
    "total_tool_calls": 5,
    "n_turns": 7,
    "validator_retries": 0
  },
  "trajectory": [
    {
      "turn": 0,
      "role": "request",
      "kind": "UserPromptPart",
      "user_summary": "1 text + 1 images"
    },
    {
      "turn": 1,
      "role": "response",
      "kind": "ThinkingPart",
      "text": ""
    },
    {
      "turn": 1,
      "role": "response",
      "kind": "ToolCallPart",
      "tool": "place",
      "args": {
        "la": "Bristol",
        "query": "Whitehall"
      }
    },
    {
      "turn": 1,
      "role": "response",
      "kind": "ToolCallPart",
      "tool": "place",
      "args": {
        "la": "Bristol",
        "query": "Fishponds"
      }
    },
    {
      "turn": 1,
      "role": "response",
      "kind": "ToolCallPart",
      "tool": "place",
      "args": {
        "la": "Bristol",
        "query": "Eastville"
      }
    },
    {
      "turn": 2,
      "role": "request",
      "kind": "ToolReturnPart",
      "tool": "place",
      "return": {
        "success": true,
        "query": "Whitehall",
        "la_filter": "Bristol",
        "n_hits": 5,
        "hits": [
          {
            "name": "Whitehall",
            "type": "suburban area",
            "lat": 51.46373691645291,
            "lon": -2.551271427145748,
            "admin_district": null,
            "county": "City of Bristol"
          },
          {
            "name": "Whitehall Gardens",
            "type": "named road",
            "lat": 51.46366903180398,
            "lon": -2.5523214336772475,
            "admin_district": null,
            "county": "City of Bristol"
          },
          {
            "name": "Whitehall Road",
            "type": "named road",
            "lat": 51.4631914179184,
            "lon": -2.5525459806764057,
            "admin_district": null,
            "county": "City of Bristol"
          },
          {
            "name": "Whitehall Primary School",
            "type": "primary education",
            "lat": 51.46508494638624,
            "lon": -2.555231992165723,
            "admin_district": null,
            "county": "City of Bristol"
          },
          {
            "name": "Whitehall Avenue",
            "type": "named road",
            "lat": 51.46417721716184,
            "lon": -2.543632980002001,
            "admin_district": null,
            "county": "City of Bristol"
          }
        ]
      }
    },
    {
      "turn": 2,
      "role": "request",
      "kind": "ToolReturnPart",
      "tool": "place",
      "return": {
        "success": true,
        "query": "Fishponds",
        "la_filter": "Bristol",
        "n_hits": 5,
        "hits": [
          {
            "name": "Fishponds",
            "type": "other settlement",
            "lat": 51.48146726607609,
            "lon": -2.5280701274842836,
            "admin_district": null,
            "county": "City of Bristol"
          },
          {
            "name": "Fishponds Road",
            "type": "section of named road",
            "lat": 51.473200812351166,
            "lon": -2.5521774255191367,
            "admin_district": null,
            "county": "City of Bristol"
          },
          {
            "name": "Fishponds Road",
            "type": "section of named road",
            "lat": 51.47909205601575,
            "lon": -2.532362595233225,
            "admin_district": null,
            "county": "City of Bristol"
          },
          {
            "name": "Fishponds Road",
            "type": "named road",
            "lat": 51.47530155049405,
            "lon": -2.543261320115977,
            "admin_district": null,
            "county": "City of Bristol"
          },
          {
            "name": "Fishponds Church of England Academy",
            "type": "primary education",
            "lat": 51.47954569281728,
            "lon": -2.5334478678548638,
            "admin_district": null,
            "county": "City of Bristol"
          }
        ]
      }
    },
    {
      "turn": 2,
      "role": "request",
      "kind": "ToolReturnPart",
      "tool": "place",
      "return": {
        "success": true,
        "query": "Eastville",
        "la_filter": "Bristol",
        "n_hits": 1,
        "hits": [
          {
            "name": "Eastville",
            "type": "suburban area",
            "lat": 51.47402315077522,
            "lon": -2.5607830375772367,
            "admin_district": null,
            "county": "City of Bristol"
          }
        ]
      }
    },
    {
      "turn": 3,
      "role": "response",
      "kind": "ThinkingPart",
      "text": ""
    },
    {
      "turn": 3,
      "role": "response",
      "kind": "ToolCallPart",
      "tool": "la_check",
      "args": {
        "lon": -2.54,
        "lat": 51.47,
        "la": "Bristol"
      }
    },
    {
      "turn": 4,
      "role": "request",
      "kind": "ToolReturnPart",
      "tool": "la_check",
      "return": {
        "success": true,
        "lat": 51.47,
        "lon": -2.54,
        "la": "Bristol",
        "inside_la": true,
        "distance_km_approx": 0.0,
        "la_centroid_lat": 51.452561432043865,
        "la_centroid_lon": -2.7711276870856563
      }
    },
    {
      "turn": 5,
      "role": "response",
      "kind": "ThinkingPart",
      "text": ""
    },
    {
      "turn": 5,
      "role": "response",
      "kind": "ToolCallPart",
      "tool": "final_result",
      "args": {
        "confidence": "high",
        "verified_inside_admin_region": true,
        "top_lon": -2.54,
        "sigma_m": 1500,
        "top_lat": 51.47,
        "picked_source": "intersect:Eastville-Fishponds-Whitehall",
        "evidence": "The map shows a large Article 4 area in East Bristol. I geocoded the three main named areas (Eastville, Fishponds, Whitehall) which form a cluster. The center point 51.47, -2.54 sits centrally within this cluster and was verified inside the Bristol LA."
      }
    },
    {
      "turn": 6,
      "role": "request",
      "kind": "ToolReturnPart",
      "tool": "final_result",
      "return": "Final result processed."
    }
  ]
}