{
  "case": "Ar4.20",
  "config": {
    "disabled_tools": [
      "grid_ref",
      "intersect",
      "postcode",
      "road"
    ],
    "locate_model": "gemini-flash"
  },
  "pick": {
    "top_lat": 51.744095268905,
    "top_lon": -0.323688934302901,
    "sigma_m": 200,
    "confidence": "high",
    "picked_source": "place:Cunningham Avenue",
    "evidence": "The map shows the Cunningham Avenue Article 4 Direction area. Geocoding 'Cunningham Avenue' in St Albans provides a precise location that matches the road layout on the map (intersection with Cunningham Hill Road). la_check confirms it is within the St Albans district.",
    "verified_inside_admin_region": true
  },
  "err_km": 0.09148518101838246,
  "gt_centroids": [
    {
      "lat": 51.74462455605985,
      "lon": -0.3226716168656488
    }
  ],
  "trajectory_stats": {
    "tool_calls": {
      "place": 2,
      "la_check": 1,
      "final_result": 1
    },
    "total_tool_calls": 4,
    "n_turns": 7,
    "validator_retries": 0
  },
  "trajectory": [
    {
      "turn": 0,
      "role": "request",
      "kind": "UserPromptPart",
      "user_summary": "1 text + 1 images"
    },
    {
      "turn": 1,
      "role": "response",
      "kind": "ThinkingPart",
      "text": ""
    },
    {
      "turn": 1,
      "role": "response",
      "kind": "ToolCallPart",
      "tool": "place",
      "args": {
        "la": "St Albans",
        "query": "Cunningham Avenue"
      }
    },
    {
      "turn": 1,
      "role": "response",
      "kind": "ToolCallPart",
      "tool": "place",
      "args": {
        "la": "St Albans",
        "query": "Cunningham Hill Road"
      }
    },
    {
      "turn": 2,
      "role": "request",
      "kind": "ToolReturnPart",
      "tool": "place",
      "return": {
        "success": true,
        "query": "Cunningham Avenue",
        "la_filter": "St Albans",
        "n_hits": 4,
        "hits": [
          {
            "name": "Cunningham Avenue",
            "type": "named road",
            "lat": 51.74409526890503,
            "lon": -0.3236889343029011,
            "admin_district": "St. Albans",
            "county": "Hertfordshire"
          },
          {
            "name": "Cunningham Hill Road",
            "type": "named road",
            "lat": 51.74438560335475,
            "lon": -0.31946299652502425,
            "admin_district": "St. Albans",
            "county": "Hertfordshire"
          },
          {
            "name": "Cunningham Hill Junior School",
            "type": "primary education",
            "lat": 51.744417024397755,
            "lon": -0.31537700107190786,
            "admin_district": "St. Albans",
            "county": "Hertfordshire"
          },
          {
            "name": "Cunningham Hill Infants School",
            "type": "primary education",
            "lat": 51.74447509773355,
            "lon": -0.3156645455369936,
            "admin_district": "St. Albans",
            "county": "Hertfordshire"
          }
        ]
      }
    },
    {
      "turn": 2,
      "role": "request",
      "kind": "ToolReturnPart",
      "tool": "place",
      "return": {
        "success": true,
        "query": "Cunningham Hill Road",
        "la_filter": "St Albans",
        "n_hits": 3,
        "hits": [
          {
            "name": "Cunningham Hill Road",
            "type": "named road",
            "lat": 51.74438560335475,
            "lon": -0.31946299652502425,
            "admin_district": "St. Albans",
            "county": "Hertfordshire"
          },
          {
            "name": "Cunningham Hill Junior School",
            "type": "primary education",
            "lat": 51.744417024397755,
            "lon": -0.31537700107190786,
            "admin_district": "St. Albans",
            "county": "Hertfordshire"
          },
          {
            "name": "Cunningham Hill Infants School",
            "type": "primary education",
            "lat": 51.74447509773355,
            "lon": -0.3156645455369936,
            "admin_district": "St. Albans",
            "county": "Hertfordshire"
          }
        ]
      }
    },
    {
      "turn": 3,
      "role": "response",
      "kind": "ThinkingPart",
      "text": ""
    },
    {
      "turn": 3,
      "role": "response",
      "kind": "ToolCallPart",
      "tool": "la_check",
      "args": {
        "lat": 51.744095268905,
        "la": "St Albans",
        "lon": -0.323688934302901
      }
    },
    {
      "turn": 4,
      "role": "request",
      "kind": "ToolReturnPart",
      "tool": "la_check",
      "return": {
        "success": true,
        "lat": 51.744095268905,
        "lon": -0.323688934302901,
        "la": "St Albans",
        "inside_la": true,
        "distance_km_approx": 0.0,
        "la_centroid_lat": 51.77208571221669,
        "la_centroid_lon": -0.3424935450554889
      }
    },
    {
      "turn": 5,
      "role": "response",
      "kind": "ThinkingPart",
      "text": ""
    },
    {
      "turn": 5,
      "role": "response",
      "kind": "ToolCallPart",
      "tool": "final_result",
      "args": {
        "verified_inside_admin_region": true,
        "confidence": "high",
        "sigma_m": 200,
        "evidence": "The map shows the Cunningham Avenue Article 4 Direction area. Geocoding 'Cunningham Avenue' in St Albans provides a precise location that matches the road layout on the map (intersection with Cunningham Hill Road). la_check confirms it is within the St Albans district.",
        "top_lon": -0.323688934302901,
        "picked_source": "place:Cunningham Avenue",
        "top_lat": 51.744095268905
      }
    },
    {
      "turn": 6,
      "role": "request",
      "kind": "ToolReturnPart",
      "tool": "final_result",
      "return": "Final result processed."
    }
  ]
}