{
  "case": "Ar4.14",
  "config": {
    "disabled_tools": [
      "grid_ref",
      "intersect",
      "postcode",
      "road"
    ],
    "locate_model": "gemini-flash"
  },
  "pick": {
    "top_lat": 51.8211901694196,
    "top_lon": -0.323556824685297,
    "sigma_m": 300,
    "confidence": "high",
    "picked_source": "place:Manor Road, Wheathampstead",
    "evidence": "The site is identified as 'r/o 26-64 Manor Road, Wheathampstead'. Geocoding Manor Road in St Albans returned a result at 51.82119, -0.32356 which is within the village of Wheathampstead. Postcode AL1 3JE is in St Albans city and likely a clerical error in the PDF info.",
    "verified_inside_admin_region": true
  },
  "err_km": 0.1056476189486127,
  "gt_centroids": [
    {
      "lat": 51.82198921383262,
      "lon": -0.3243884590333055
    }
  ],
  "trajectory_stats": {
    "tool_calls": {
      "place": 5,
      "la_check": 1,
      "final_result": 1
    },
    "total_tool_calls": 7,
    "n_turns": 9,
    "validator_retries": 0
  },
  "trajectory": [
    {
      "turn": 0,
      "role": "request",
      "kind": "UserPromptPart",
      "user_summary": "1 text + 1 images"
    },
    {
      "turn": 1,
      "role": "response",
      "kind": "ThinkingPart",
      "text": ""
    },
    {
      "turn": 1,
      "role": "response",
      "kind": "ToolCallPart",
      "tool": "place",
      "args": {
        "la": "St Albans",
        "query": "Manor Road, Wheathampstead"
      }
    },
    {
      "turn": 1,
      "role": "response",
      "kind": "ToolCallPart",
      "tool": "place",
      "args": {
        "query": "AL1 3JE"
      }
    },
    {
      "turn": 1,
      "role": "response",
      "kind": "ToolCallPart",
      "tool": "place",
      "args": {
        "query": "CB4 9ZR"
      }
    },
    {
      "turn": 2,
      "role": "request",
      "kind": "ToolReturnPart",
      "tool": "place",
      "return": {
        "success": true,
        "query": "Manor Road, Wheathampstead",
        "la_filter": "St Albans",
        "n_hits": 0,
        "hits": []
      }
    },
    {
      "turn": 2,
      "role": "request",
      "kind": "ToolReturnPart",
      "tool": "place",
      "return": {
        "success": true,
        "query": "AL1 3JE",
        "la_filter": null,
        "n_hits": 1,
        "hits": [
          {
            "name": "AL1 3JE",
            "type": "postcode",
            "lat": 51.75336285595908,
            "lon": -0.33612427907835657,
            "admin_district": "St. Albans",
            "county": "Hertfordshire"
          }
        ]
      }
    },
    {
      "turn": 2,
      "role": "request",
      "kind": "ToolReturnPart",
      "tool": "place",
      "return": {
        "success": true,
        "query": "CB4 9ZR",
        "la_filter": null,
        "n_hits": 0,
        "hits": []
      }
    },
    {
      "turn": 3,
      "role": "response",
      "kind": "ThinkingPart",
      "text": ""
    },
    {
      "turn": 3,
      "role": "response",
      "kind": "ToolCallPart",
      "tool": "place",
      "args": {
        "la": "St Albans",
        "query": "Manor Road"
      }
    },
    {
      "turn": 3,
      "role": "response",
      "kind": "ToolCallPart",
      "tool": "place",
      "args": {
        "query": "Wheathampstead",
        "la": "St Albans"
      }
    },
    {
      "turn": 4,
      "role": "request",
      "kind": "ToolReturnPart",
      "tool": "place",
      "return": {
        "success": true,
        "query": "Manor Road",
        "la_filter": "St Albans",
        "n_hits": 5,
        "hits": [
          {
            "name": "Manor Road",
            "type": "named road",
            "lat": 51.72273726702535,
            "lon": -0.30349994570785516,
            "admin_district": "St. Albans",
            "county": "Hertfordshire"
          },
          {
            "name": "Manor Road",
            "type": "named road",
            "lat": 51.82119016941956,
            "lon": -0.32355682468529695,
            "admin_district": "St. Albans",
            "county": "Hertfordshire"
          },
          {
            "name": "Manor Road",
            "type": "named road",
            "lat": 51.75477589169294,
            "lon": -0.3286107683230215,
            "admin_district": "St. Albans",
            "county": "Hertfordshire"
          },
          {
            "name": "Manor Close",
            "type": "named road",
            "lat": 51.80369105190329,
            "lon": -0.35919010886710306,
            "admin_district": "St. Albans",
            "county": "Hertfordshire"
          },
          {
            "name": "Manor Wood",
            "type": "woodland or forest",
            "lat": 51.80619418121353,
            "lon": -0.3730239564260905,
            "admin_district": "St. Albans",
            "county": "Hertfordshire"
          }
        ]
      }
    },
    {
      "turn": 4,
      "role": "request",
      "kind": "ToolReturnPart",
      "tool": "place",
      "return": {
        "success": true,
        "query": "Wheathampstead",
        "la_filter": "St Albans",
        "n_hits": 4,
        "hits": [
          {
            "name": "Wheathampstead",
            "type": "village",
            "lat": 51.81176242947492,
            "lon": -0.29387756385607416,
            "admin_district": "St. Albans",
            "county": "Hertfordshire"
          },
          {
            "name": "Wheathampstead Road",
            "type": "section of named road",
            "lat": 51.81009056451133,
            "lon": -0.32898786514033157,
            "admin_district": "St. Albans",
            "county": "Hertfordshire"
          },
          {
            "name": "Wheathampstead Road",
            "type": "named road",
            "lat": 51.81069496220408,
            "lon": -0.32470061663211647,
            "admin_district": "St. Albans",
            "county": "Hertfordshire"
          },
          {
            "name": "Wheathampstead House",
            "type": "non state primary education",
            "lat": 51.8175400870189,
            "lon": -0.29049644080922576,
            "admin_district": "St. Albans",
            "county": "Hertfordshire"
          }
        ]
      }
    },
    {
      "turn": 5,
      "role": "response",
      "kind": "ThinkingPart",
      "text": ""
    },
    {
      "turn": 5,
      "role": "response",
      "kind": "ToolCallPart",
      "tool": "la_check",
      "args": {
        "lon": -0.323556824685297,
        "la": "St Albans",
        "lat": 51.8211901694196
      }
    },
    {
      "turn": 6,
      "role": "request",
      "kind": "ToolReturnPart",
      "tool": "la_check",
      "return": {
        "success": true,
        "lat": 51.8211901694196,
        "lon": -0.323556824685297,
        "la": "St Albans",
        "inside_la": true,
        "distance_km_approx": 0.0,
        "la_centroid_lat": 51.77208571221669,
        "la_centroid_lon": -0.3424935450554889
      }
    },
    {
      "turn": 7,
      "role": "response",
      "kind": "ThinkingPart",
      "text": ""
    },
    {
      "turn": 7,
      "role": "response",
      "kind": "ToolCallPart",
      "tool": "final_result",
      "args": {
        "confidence": "high",
        "top_lat": 51.8211901694196,
        "verified_inside_admin_region": true,
        "top_lon": -0.323556824685297,
        "evidence": "The site is identified as 'r/o 26-64 Manor Road, Wheathampstead'. Geocoding Manor Road in St Albans returned a result at 51.82119, -0.32356 which is within the village of Wheathampstead. Postcode AL1 3JE is in St Albans city and likely a clerical error in the PDF info.",
        "sigma_m": 300,
        "picked_source": "place:Manor Road, Wheathampstead"
      }
    },
    {
      "turn": 8,
      "role": "request",
      "kind": "ToolReturnPart",
      "tool": "final_result",
      "return": "Final result processed."
    }
  ]
}