{
  "case": "12:00156:ART4",
  "config": {
    "disabled_tools": [
      "grid_ref"
    ],
    "locate_model": "gemini-flash"
  },
  "pick": {
    "top_lat": 52.618,
    "top_lon": 1.205,
    "sigma_m": 800,
    "confidence": "high",
    "picked_source": "place:Colney/Little Melton midpoint",
    "evidence": "The site is located between Colney and Little Melton. Braymeadow Lane (found via tool) forms the southern boundary, and the map shows the site extending north towards the B1108. The picked coordinate is the centroid of the large hatched area between these features.",
    "verified_inside_admin_region": true
  },
  "err_km": 0.23141756526558874,
  "gt_centroids": [
    {
      "lat": 52.616178717481645,
      "lon": 1.206658783269228
    }
  ],
  "trajectory_stats": {
    "tool_calls": {
      "place": 4,
      "road": 1,
      "la_check": 1,
      "final_result": 1
    },
    "total_tool_calls": 7,
    "n_turns": 7,
    "validator_retries": 0
  },
  "trajectory": [
    {
      "turn": 0,
      "role": "request",
      "kind": "UserPromptPart",
      "user_summary": "1 text + 1 images"
    },
    {
      "turn": 1,
      "role": "response",
      "kind": "ThinkingPart",
      "text": ""
    },
    {
      "turn": 1,
      "role": "response",
      "kind": "ToolCallPart",
      "tool": "place",
      "args": {
        "la": "Norfolk",
        "query": "Colney"
      }
    },
    {
      "turn": 1,
      "role": "response",
      "kind": "ToolCallPart",
      "tool": "place",
      "args": {
        "query": "Little Melton",
        "la": "Norfolk"
      }
    },
    {
      "turn": 1,
      "role": "response",
      "kind": "ToolCallPart",
      "tool": "place",
      "args": {
        "query": "Manor Farm Colney",
        "la": "Norfolk"
      }
    },
    {
      "turn": 1,
      "role": "response",
      "kind": "ToolCallPart",
      "tool": "road",
      "args": {
        "la": "Norfolk",
        "query": "Braymeadow Lane"
      }
    },
    {
      "turn": 2,
      "role": "request",
      "kind": "ToolReturnPart",
      "tool": "place",
      "return": {
        "success": true,
        "query": "Colney",
        "la_filter": "Norfolk",
        "n_hits": 5,
        "hits": [
          {
            "name": "Colney",
            "type": "village",
            "lat": 52.622669932614215,
            "lon": 1.2234726492806807,
            "admin_district": "South Norfolk",
            "county": "Norfolk"
          },
          {
            "name": "Colney Road",
            "type": "named road",
            "lat": 52.752544987152966,
            "lon": 0.44268653222217047,
            "admin_district": "King's Lynn and West Norfolk",
            "county": "Norfolk"
          },
          {
            "name": "Colney Lane",
            "type": "section of named road",
            "lat": 52.611985191518805,
            "lon": 1.2373287202853533,
            "admin_district": "South Norfolk",
            "county": "Norfolk"
          },
          {
            "name": "Colney Lane",
            "type": "section of named road",
            "lat": 52.62179408696582,
            "lon": 1.2236003570884657,
            "admin_district": "South Norfolk",
            "county": "Norfolk"
          },
          {
            "name": "Colney Lane",
            "type": "named road",
            "lat": 52.60312196190886,
            "lon": 1.196806436600663,
            "admin_district": "South Norfolk",
            "county": "Norfolk"
          }
        ]
      }
    },
    {
      "turn": 2,
      "role": "request",
      "kind": "ToolReturnPart",
      "tool": "place",
      "return": {
        "success": true,
        "query": "Little Melton",
        "la_filter": "Norfolk",
        "n_hits": 5,
        "hits": [
          {
            "name": "Little Melton",
            "type": "village",
            "lat": 52.61752949784457,
            "lon": 1.184794633990199,
            "admin_district": "South Norfolk",
            "county": "Norfolk"
          },
          {
            "name": "Little Melton Road",
            "type": "section of named road",
            "lat": 52.613374966130245,
            "lon": 1.1901220971124917,
            "admin_district": "South Norfolk",
            "county": "Norfolk"
          },
          {
            "name": "Little Melton Road",
            "type": "section of named road",
            "lat": 52.61188869248898,
            "lon": 1.1808539196606498,
            "admin_district": "South Norfolk",
            "county": "Norfolk"
          },
          {
            "name": "Little Melton Road",
            "type": "section of named road",
            "lat": 52.606171450393525,
            "lon": 1.1794200159497479,
            "admin_district": "South Norfolk",
            "county": "Norfolk"
          },
          {
            "name": "Little Melton Road",
            "type": "named road",
            "lat": 52.60871414494264,
            "lon": 1.17917591199655,
            "admin_district": "South Norfolk",
            "county": "Norfolk"
          }
        ]
      }
    },
    {
      "turn": 2,
      "role": "request",
      "kind": "ToolReturnPart",
      "tool": "place",
      "return": {
        "success": true,
        "query": "Manor Farm Colney",
        "la_filter": "Norfolk",
        "n_hits": 0,
        "hits": []
      }
    },
    {
      "turn": 2,
      "role": "request",
      "kind": "ToolReturnPart",
      "tool": "road",
      "return": {
        "success": true,
        "query": "Braymeadow Lane",
        "la_filter": "Norfolk",
        "n_hits": 4,
        "hits": [
          {
            "name": "Braymeadow Lane",
            "lat": 52.61233942565262,
            "lon": 1.2001407634871988,
            "in_la": "Norfolk"
          },
          {
            "name": "Braymeadow Lane",
            "lat": 52.61080113828573,
            "lon": 1.2037675878113379,
            "in_la": "Norfolk"
          },
          {
            "name": "Braymeadow Lane",
            "lat": 52.61423244890837,
            "lon": 1.1964701057393166,
            "in_la": "Norfolk"
          },
          {
            "name": "Braymeadow Lane",
            "lat": 52.615688503391276,
            "lon": 1.1952920270884735,
            "in_la": "Norfolk"
          }
        ]
      }
    },
    {
      "turn": 3,
      "role": "response",
      "kind": "ThinkingPart",
      "text": ""
    },
    {
      "turn": 3,
      "role": "response",
      "kind": "ToolCallPart",
      "tool": "place",
      "args": {
        "la": "Norfolk",
        "query": "Manor Farm"
      }
    },
    {
      "turn": 3,
      "role": "response",
      "kind": "ToolCallPart",
      "tool": "la_check",
      "args": {
        "la": "Norfolk",
        "lon": 1.205,
        "lat": 52.615
      }
    },
    {
      "turn": 4,
      "role": "request",
      "kind": "ToolReturnPart",
      "tool": "place",
      "return": {
        "success": true,
        "query": "Manor Farm",
        "la_filter": "Norfolk",
        "n_hits": 5,
        "hits": [
          {
            "name": "Manor Farm Lane",
            "type": "named road",
            "lat": 52.711939833511366,
            "lon": 0.9406514363666689,
            "admin_district": "Breckland",
            "county": "Norfolk"
          },
          {
            "name": "Manor Farm Drive",
            "type": "named road",
            "lat": 52.95100133604179,
            "lon": 0.8502037961701644,
            "admin_district": "North Norfolk",
            "county": "Norfolk"
          },
          {
            "name": "Manor Farm Close",
            "type": "named road",
            "lat": 52.67904314716316,
            "lon": 1.225701324266543,
            "admin_district": "Broadland",
            "county": "Norfolk"
          },
          {
            "name": "Manor Farm Road",
            "type": "named road",
            "lat": 52.717958599677786,
            "lon": 1.6749262075216942,
            "admin_district": "Great Yarmouth",
            "county": "Norfolk"
          },
          {
            "name": "Manor Farm Gardens",
            "type": "named road",
            "lat": 52.55949476842915,
            "lon": 0.388715466479102,
            "admin_district": "King's Lynn and West Norfolk",
            "county": "Norfolk"
          }
        ]
      }
    },
    {
      "turn": 4,
      "role": "request",
      "kind": "ToolReturnPart",
      "tool": "la_check",
      "return": {
        "success": true,
        "lat": 52.615,
        "lon": 1.205,
        "la": "Norfolk",
        "inside_la": true,
        "distance_km_approx": 0.0,
        "la_centroid_lat": 52.67557170584784,
        "la_centroid_lon": 0.9454733560640171
      }
    },
    {
      "turn": 5,
      "role": "response",
      "kind": "ThinkingPart",
      "text": ""
    },
    {
      "turn": 5,
      "role": "response",
      "kind": "ToolCallPart",
      "tool": "final_result",
      "args": {
        "confidence": "high",
        "picked_source": "place:Colney/Little Melton midpoint",
        "top_lon": 1.205,
        "evidence": "The site is located between Colney and Little Melton. Braymeadow Lane (found via tool) forms the southern boundary, and the map shows the site extending north towards the B1108. The picked coordinate is the centroid of the large hatched area between these features.",
        "top_lat": 52.618,
        "sigma_m": 800,
        "verified_inside_admin_region": true
      }
    },
    {
      "turn": 6,
      "role": "request",
      "kind": "ToolReturnPart",
      "tool": "final_result",
      "return": "Final result processed."
    }
  ]
}