{
  "case": "A4D-04",
  "config": {
    "disabled_tools": [
      "grid_ref"
    ],
    "locate_model": "gemini-flash"
  },
  "pick": {
    "top_lat": 51.165,
    "top_lon": -0.76,
    "sigma_m": 1500,
    "confidence": "high",
    "picked_source": "place:Frensham Common",
    "evidence": "The site covers a large area of Frensham and Hankley Commons. The centroid is placed between Frensham Common and Tilford Reeds, consistent with the hatched area on the map. Verified within Waverley (formerly Hambledon RD).",
    "verified_inside_admin_region": true
  },
  "err_km": 0.975373676193001,
  "gt_centroids": [
    {
      "lat": 51.16017788702342,
      "lon": -0.7716843425634584
    }
  ],
  "trajectory_stats": {
    "tool_calls": {
      "place": 4,
      "la_check": 1,
      "final_result": 1
    },
    "total_tool_calls": 6,
    "n_turns": 7,
    "validator_retries": 0
  },
  "trajectory": [
    {
      "turn": 0,
      "role": "request",
      "kind": "UserPromptPart",
      "user_summary": "1 text + 1 images"
    },
    {
      "turn": 1,
      "role": "response",
      "kind": "ThinkingPart",
      "text": ""
    },
    {
      "turn": 1,
      "role": "response",
      "kind": "ToolCallPart",
      "tool": "place",
      "args": {
        "query": "Frensham Common",
        "la": "Hambledon"
      }
    },
    {
      "turn": 1,
      "role": "response",
      "kind": "ToolCallPart",
      "tool": "place",
      "args": {
        "la": "Hambledon",
        "query": "Tilford Reeds"
      }
    },
    {
      "turn": 1,
      "role": "response",
      "kind": "ToolCallPart",
      "tool": "place",
      "args": {
        "la": "Hambledon",
        "query": "Hankley Common"
      }
    },
    {
      "turn": 1,
      "role": "response",
      "kind": "ToolCallPart",
      "tool": "place",
      "args": {
        "la": "Hambledon",
        "query": "Churt"
      }
    },
    {
      "turn": 2,
      "role": "request",
      "kind": "ToolReturnPart",
      "tool": "place",
      "return": {
        "success": true,
        "query": "Frensham Common",
        "la_filter": "Hambledon",
        "n_hits": 1,
        "hits": [
          {
            "name": "Frensham Common",
            "type": "other landcover",
            "lat": 51.16047421089795,
            "lon": -0.7784396680930405,
            "admin_district": "Waverley",
            "county": "Surrey"
          }
        ]
      }
    },
    {
      "turn": 2,
      "role": "request",
      "kind": "ToolReturnPart",
      "tool": "place",
      "return": {
        "success": true,
        "query": "Tilford Reeds",
        "la_filter": "Hambledon",
        "n_hits": 1,
        "hits": [
          {
            "name": "Tilford Reeds",
            "type": "hamlet",
            "lat": 51.182458639011806,
            "lon": -0.7653967762619992,
            "admin_district": "Waverley",
            "county": "Surrey"
          }
        ]
      }
    },
    {
      "turn": 2,
      "role": "request",
      "kind": "ToolReturnPart",
      "tool": "place",
      "return": {
        "success": true,
        "query": "Hankley Common",
        "la_filter": "Hambledon",
        "n_hits": 2,
        "hits": [
          {
            "name": "Hankley Common",
            "type": "other landcover",
            "lat": 51.16628105631108,
            "lon": -0.7400695852994964,
            "admin_district": "Waverley",
            "county": "Surrey"
          },
          {
            "name": "Hankley Common",
            "type": "named road",
            "lat": 51.426934989524106,
            "lon": -0.7787421351284054,
            "admin_district": null,
            "county": "Bracknell Forest"
          }
        ]
      }
    },
    {
      "turn": 2,
      "role": "request",
      "kind": "ToolReturnPart",
      "tool": "place",
      "return": {
        "success": true,
        "query": "Churt",
        "la_filter": "Hambledon",
        "n_hits": 5,
        "hits": [
          {
            "name": "Churt",
            "type": "village",
            "lat": 51.13689592489802,
            "lon": -0.7792905908017826,
            "admin_district": "Waverley",
            "county": "Surrey"
          },
          {
            "name": "Churton Grove",
            "type": "named road",
            "lat": 53.59065186493158,
            "lon": -2.6869589209602713,
            "admin_district": "Wigan",
            "county": null
          },
          {
            "name": "Churton Street",
            "type": "named road",
            "lat": 52.882194105537266,
            "lon": -4.4140946658916205,
            "admin_district": null,
            "county": "Gwynedd - Gwynedd"
          },
          {
            "name": "Churton Road",
            "type": "named road",
            "lat": 53.323407853186005,
            "lon": -3.4827776855811305,
            "admin_district": null,
            "county": "Sir Ddinbych - Denbighshire"
          },
          {
            "name": "Churton Drive",
            "type": "named road",
            "lat": 53.050524849036194,
            "lon": -2.978938369638379,
            "admin_district": null,
            "county": "Wrecsam - Wrexham"
          }
        ]
      }
    },
    {
      "turn": 3,
      "role": "response",
      "kind": "ThinkingPart",
      "text": ""
    },
    {
      "turn": 3,
      "role": "response",
      "kind": "ToolCallPart",
      "tool": "la_check",
      "args": {
        "lon": -0.76,
        "la": "Waverley",
        "lat": 51.165
      }
    },
    {
      "turn": 4,
      "role": "request",
      "kind": "ToolReturnPart",
      "tool": "la_check",
      "return": {
        "success": true,
        "lat": 51.165,
        "lon": -0.76,
        "la": "Waverley",
        "inside_la": true,
        "distance_km_approx": 0.0,
        "la_centroid_lat": 51.14979708109079,
        "la_centroid_lon": -0.6327293391700743
      }
    },
    {
      "turn": 5,
      "role": "response",
      "kind": "ThinkingPart",
      "text": ""
    },
    {
      "turn": 5,
      "role": "response",
      "kind": "ToolCallPart",
      "tool": "final_result",
      "args": {
        "verified_inside_admin_region": true,
        "evidence": "The site covers a large area of Frensham and Hankley Commons. The centroid is placed between Frensham Common and Tilford Reeds, consistent with the hatched area on the map. Verified within Waverley (formerly Hambledon RD).",
        "top_lat": 51.165,
        "sigma_m": 1500,
        "confidence": "high",
        "top_lon": -0.76,
        "picked_source": "place:Frensham Common"
      }
    },
    {
      "turn": 6,
      "role": "request",
      "kind": "ToolReturnPart",
      "tool": "final_result",
      "return": "Final result processed."
    }
  ]
}