{
  "case": "A4DA01",
  "config": {
    "disabled_tools": [
      "grid_ref"
    ],
    "locate_model": "gemini-flash"
  },
  "pick": {
    "top_lat": 53.664,
    "top_lon": -2.315,
    "sigma_m": 500,
    "confidence": "high",
    "picked_source": "place:Chatterton / Strongstry",
    "evidence": "The site is the Chatterton and Strongstry Conservation Area. Geocoding 'Chatterton' and 'Strongstry' villages in Rossendale yields coordinates within 300m of each other. The postcode OL13 0DE is for the Council offices (Stubbylee Hall) and was correctly identified as a letterhead signal.",
    "verified_inside_admin_region": true
  },
  "err_km": 0.02647500267224843,
  "gt_centroids": [
    {
      "lat": 53.6637632920332,
      "lon": -2.3150433173744616
    }
  ],
  "trajectory_stats": {
    "tool_calls": {
      "postcode": 1,
      "place": 3,
      "la_check": 1,
      "final_result": 1
    },
    "total_tool_calls": 6,
    "n_turns": 7,
    "validator_retries": 0
  },
  "trajectory": [
    {
      "turn": 0,
      "role": "request",
      "kind": "UserPromptPart",
      "user_summary": "1 text + 1 images"
    },
    {
      "turn": 1,
      "role": "response",
      "kind": "ThinkingPart",
      "text": ""
    },
    {
      "turn": 1,
      "role": "response",
      "kind": "ToolCallPart",
      "tool": "postcode",
      "args": {
        "pc": "OL13 0DE"
      }
    },
    {
      "turn": 1,
      "role": "response",
      "kind": "ToolCallPart",
      "tool": "place",
      "args": {
        "la": "Rossendale",
        "query": "Chatterton"
      }
    },
    {
      "turn": 1,
      "role": "response",
      "kind": "ToolCallPart",
      "tool": "place",
      "args": {
        "la": "Rossendale",
        "query": "Strongstry"
      }
    },
    {
      "turn": 1,
      "role": "response",
      "kind": "ToolCallPart",
      "tool": "place",
      "args": {
        "la": "Rossendale",
        "query": "Stubbins"
      }
    },
    {
      "turn": 2,
      "role": "request",
      "kind": "ToolReturnPart",
      "tool": "postcode",
      "return": {
        "success": true,
        "postcode": "OL13 0DE",
        "lat": 53.69273376478582,
        "lon": -2.2031783300491248,
        "admin_district": "Rossendale District (B)"
      }
    },
    {
      "turn": 2,
      "role": "request",
      "kind": "ToolReturnPart",
      "tool": "place",
      "return": {
        "success": true,
        "query": "Chatterton",
        "la_filter": "Rossendale",
        "n_hits": 5,
        "hits": [
          {
            "name": "Chatterton",
            "type": "village",
            "lat": 53.66297515958558,
            "lon": -2.314748719597638,
            "admin_district": "Rossendale",
            "county": "Lancashire"
          },
          {
            "name": "Chatterton Old Lane",
            "type": "section of named road",
            "lat": 53.66343688584549,
            "lon": -2.3134809531527334,
            "admin_district": "Rossendale",
            "county": "Lancashire"
          },
          {
            "name": "Chatterton Road",
            "type": "section of named road",
            "lat": 53.662337726123276,
            "lon": -2.314471571467982,
            "admin_district": "Rossendale",
            "county": "Lancashire"
          },
          {
            "name": "Chatterton Road",
            "type": "named road",
            "lat": 53.661528724349026,
            "lon": -2.3144958099636033,
            "admin_district": "Rossendale",
            "county": "Lancashire"
          },
          {
            "name": "Chatterton Road",
            "type": "section of named road",
            "lat": 53.65919386313234,
            "lon": -2.313706687044933,
            "admin_district": "Rossendale",
            "county": "Lancashire"
          }
        ]
      }
    },
    {
      "turn": 2,
      "role": "request",
      "kind": "ToolReturnPart",
      "tool": "place",
      "return": {
        "success": true,
        "query": "Strongstry",
        "la_filter": "Rossendale",
        "n_hits": 3,
        "hits": [
          {
            "name": "Strongstry",
            "type": "village",
            "lat": 53.66557657420772,
            "lon": -2.316705298948529,
            "admin_district": "Rossendale",
            "county": "Lancashire"
          },
          {
            "name": "Strongstry Road",
            "type": "named road",
            "lat": 53.66463006401328,
            "lon": -2.317742434039497,
            "admin_district": "Rossendale",
            "county": "Lancashire"
          },
          {
            "name": "Strongstry Road",
            "type": "section of named road",
            "lat": 53.66431238340377,
            "lon": -2.318905342191605,
            "admin_district": "Rossendale",
            "county": "Lancashire"
          }
        ]
      }
    },
    {
      "turn": 2,
      "role": "request",
      "kind": "ToolReturnPart",
      "tool": "place",
      "return": {
        "success": true,
        "query": "Stubbins",
        "la_filter": "Rossendale",
        "n_hits": 5,
        "hits": [
          {
            "name": "Stubbins",
            "type": "village",
            "lat": 53.658339127008595,
            "lon": -2.314033231166735,
            "admin_district": "Rossendale",
            "county": "Lancashire"
          },
          {
            "name": "Stubbins",
            "type": "railway station",
            "lat": 53.658556688207334,
            "lon": -2.3167434237137075,
            "admin_district": "Rossendale",
            "county": "Lancashire"
          },
          {
            "name": "Stubbins Vale Road",
            "type": "named road",
            "lat": 53.66141767632847,
            "lon": -2.3190953308827758,
            "admin_district": "Rossendale",
            "county": "Lancashire"
          },
          {
            "name": "Stubbins Lane",
            "type": "section of named road",
            "lat": 53.656057374825686,
            "lon": -2.3169667659563618,
            "admin_district": "Rossendale",
            "county": "Lancashire"
          },
          {
            "name": "Stubbins Street",
            "type": "named road",
            "lat": 53.65806086326321,
            "lon": -2.317299569983086,
            "admin_district": "Rossendale",
            "county": "Lancashire"
          }
        ]
      }
    },
    {
      "turn": 3,
      "role": "response",
      "kind": "ThinkingPart",
      "text": ""
    },
    {
      "turn": 3,
      "role": "response",
      "kind": "ToolCallPart",
      "tool": "la_check",
      "args": {
        "lat": 53.664,
        "lon": -2.315,
        "la": "Rossendale"
      }
    },
    {
      "turn": 4,
      "role": "request",
      "kind": "ToolReturnPart",
      "tool": "la_check",
      "return": {
        "success": true,
        "lat": 53.664,
        "lon": -2.315,
        "la": "Rossendale",
        "inside_la": true,
        "distance_km_approx": 0.0,
        "la_centroid_lat": 53.69381770640495,
        "la_centroid_lon": -2.2673137098881666
      }
    },
    {
      "turn": 5,
      "role": "response",
      "kind": "ThinkingPart",
      "text": ""
    },
    {
      "turn": 5,
      "role": "response",
      "kind": "ToolCallPart",
      "tool": "final_result",
      "args": {
        "evidence": "The site is the Chatterton and Strongstry Conservation Area. Geocoding 'Chatterton' and 'Strongstry' villages in Rossendale yields coordinates within 300m of each other. The postcode OL13 0DE is for the Council offices (Stubbylee Hall) and was correctly identified as a letterhead signal.",
        "verified_inside_admin_region": true,
        "confidence": "high",
        "sigma_m": 500,
        "picked_source": "place:Chatterton / Strongstry",
        "top_lon": -2.315,
        "top_lat": 53.664
      }
    },
    {
      "turn": 6,
      "role": "request",
      "kind": "ToolReturnPart",
      "tool": "final_result",
      "return": "Final result processed."
    }
  ]
}