{
  "case": "ARTICLE:230",
  "config": {
    "disabled_tools": [
      "grid_ref"
    ],
    "locate_model": "gemini-flash"
  },
  "pick": {
    "top_lat": 52.114538,
    "top_lon": 0.248263,
    "sigma_m": 300,
    "confidence": "high",
    "picked_source": "place:Hilda's Wood",
    "evidence": "The site is located immediately northwest of Hilda's Wood and adjacent to the River Granta. The grid reference TL 50 48 (52.114, 0.248) aligns perfectly with the OS Open Names location for Hilda's Wood.",
    "verified_inside_admin_region": true
  },
  "err_km": 0.34807667424604855,
  "gt_centroids": [
    {
      "lat": 52.11677036868277,
      "lon": 0.24468942774469554
    }
  ],
  "trajectory_stats": {
    "tool_calls": {
      "place": 3,
      "road": 1,
      "la_check": 1,
      "final_result": 1
    },
    "total_tool_calls": 6,
    "n_turns": 7,
    "validator_retries": 0
  },
  "trajectory": [
    {
      "turn": 0,
      "role": "request",
      "kind": "UserPromptPart",
      "user_summary": "1 text + 1 images"
    },
    {
      "turn": 1,
      "role": "response",
      "kind": "ThinkingPart",
      "text": ""
    },
    {
      "turn": 1,
      "role": "response",
      "kind": "ToolCallPart",
      "tool": "place",
      "args": {
        "query": "Great Abington",
        "la": "South Cambridgeshire"
      }
    },
    {
      "turn": 1,
      "role": "response",
      "kind": "ToolCallPart",
      "tool": "place",
      "args": {
        "query": "Hilda's Wood",
        "la": "South Cambridgeshire"
      }
    },
    {
      "turn": 1,
      "role": "response",
      "kind": "ToolCallPart",
      "tool": "place",
      "args": {
        "query": "West Lodge",
        "la": "South Cambridgeshire"
      }
    },
    {
      "turn": 1,
      "role": "response",
      "kind": "ToolCallPart",
      "tool": "road",
      "args": {
        "la": "South Cambridgeshire",
        "query": "Linton Road"
      }
    },
    {
      "turn": 2,
      "role": "request",
      "kind": "ToolReturnPart",
      "tool": "place",
      "return": {
        "success": true,
        "query": "Great Abington",
        "la_filter": "South Cambridgeshire",
        "n_hits": 2,
        "hits": [
          {
            "name": "Great Abington",
            "type": "village",
            "lat": 52.11689400551933,
            "lon": 0.21741514097320971,
            "admin_district": "South Cambridgeshire",
            "county": "Cambridgeshire"
          },
          {
            "name": "Great Abington Primary School",
            "type": "primary education",
            "lat": 52.11681960836629,
            "lon": 0.23705765996332026,
            "admin_district": "South Cambridgeshire",
            "county": "Cambridgeshire"
          }
        ]
      }
    },
    {
      "turn": 2,
      "role": "request",
      "kind": "ToolReturnPart",
      "tool": "place",
      "return": {
        "success": true,
        "query": "Hilda's Wood",
        "la_filter": "South Cambridgeshire",
        "n_hits": 1,
        "hits": [
          {
            "name": "Hilda's Wood",
            "type": "woodland or forest",
            "lat": 52.11453820639287,
            "lon": 0.24826318096778704,
            "admin_district": "South Cambridgeshire",
            "county": "Cambridgeshire"
          }
        ]
      }
    },
    {
      "turn": 2,
      "role": "request",
      "kind": "ToolReturnPart",
      "tool": "place",
      "return": {
        "success": true,
        "query": "West Lodge",
        "la_filter": "South Cambridgeshire",
        "n_hits": 2,
        "hits": [
          {
            "name": "West Lodge Plantation",
            "type": "woodland or forest",
            "lat": 52.75227484804226,
            "lon": -0.4767938356901106,
            "admin_district": "South Kesteven",
            "county": "Lincolnshire"
          },
          {
            "name": "West Lodge Lane",
            "type": "named road",
            "lat": 52.38672373784279,
            "lon": 0.10996926900450224,
            "admin_district": "East Cambridgeshire",
            "county": "Cambridgeshire"
          }
        ]
      }
    },
    {
      "turn": 2,
      "role": "request",
      "kind": "ToolReturnPart",
      "tool": "road",
      "return": {
        "success": true,
        "query": "Linton Road",
        "la_filter": "South Cambridgeshire",
        "n_hits": 5,
        "hits": [
          {
            "name": "Linton Road",
            "lat": 52.099965661079146,
            "lon": 0.34880915771392906,
            "in_la": "South Cambridgeshire"
          },
          {
            "name": "Linton Road",
            "lat": 52.09977691913,
            "lon": 0.3511064353485317,
            "in_la": "South Cambridgeshire"
          },
          {
            "name": "Linton Road",
            "lat": 52.10008744515414,
            "lon": 0.3467336502840423,
            "in_la": "South Cambridgeshire"
          },
          {
            "name": "Linton Road",
            "lat": 52.10044500061347,
            "lon": 0.3461885020770349,
            "in_la": "South Cambridgeshire"
          },
          {
            "name": "Linton Road",
            "lat": 52.13291123245372,
            "lon": 0.30600300925221335,
            "in_la": "South Cambridgeshire"
          }
        ]
      }
    },
    {
      "turn": 3,
      "role": "response",
      "kind": "ThinkingPart",
      "text": ""
    },
    {
      "turn": 3,
      "role": "response",
      "kind": "ToolCallPart",
      "tool": "la_check",
      "args": {
        "la": "South Cambridgeshire",
        "lon": 0.248,
        "lat": 52.1145
      }
    },
    {
      "turn": 4,
      "role": "request",
      "kind": "ToolReturnPart",
      "tool": "la_check",
      "return": {
        "success": true,
        "lat": 52.1145,
        "lon": 0.248,
        "la": "South Cambridgeshire",
        "inside_la": true,
        "distance_km_approx": 0.0,
        "la_centroid_lat": 52.17283510081104,
        "la_centroid_lon": 0.08123824327654822
      }
    },
    {
      "turn": 5,
      "role": "response",
      "kind": "ThinkingPart",
      "text": ""
    },
    {
      "turn": 5,
      "role": "response",
      "kind": "ToolCallPart",
      "tool": "final_result",
      "args": {
        "sigma_m": 300,
        "verified_inside_admin_region": true,
        "evidence": "The site is located immediately northwest of Hilda's Wood and adjacent to the River Granta. The grid reference TL 50 48 (52.114, 0.248) aligns perfectly with the OS Open Names location for Hilda's Wood.",
        "confidence": "high",
        "top_lon": 0.248263,
        "picked_source": "place:Hilda's Wood",
        "top_lat": 52.114538
      }
    },
    {
      "turn": 6,
      "role": "request",
      "kind": "ToolReturnPart",
      "tool": "final_result",
      "return": "Final result processed."
    }
  ]
}