{
  "case": "SSA401",
  "config": {
    "disabled_tools": [
      "grid_ref"
    ],
    "locate_model": "gemini-flash"
  },
  "pick": {
    "top_lat": 52.4737364708185,
    "top_lon": -2.19824696713776,
    "sigma_m": 500,
    "confidence": "high",
    "picked_source": "place:Prestwood",
    "evidence": "The site is located in Prestwood, South Staffordshire, adjacent to the A449 (Wolverhampton Road). The village of Prestwood in South Staffordshire provides a precise match for the location described in the address and map labels.",
    "verified_inside_admin_region": true
  },
  "err_km": 0.135754748218305,
  "gt_centroids": [
    {
      "lat": 52.474433671439876,
      "lon": -2.1966016151350836
    }
  ],
  "trajectory_stats": {
    "tool_calls": {
      "postcode": 1,
      "place": 5,
      "road": 1,
      "la_check": 1,
      "final_result": 1
    },
    "total_tool_calls": 9,
    "n_turns": 9,
    "validator_retries": 0
  },
  "trajectory": [
    {
      "turn": 0,
      "role": "request",
      "kind": "UserPromptPart",
      "user_summary": "1 text + 1 images"
    },
    {
      "turn": 1,
      "role": "response",
      "kind": "ThinkingPart",
      "text": ""
    },
    {
      "turn": 1,
      "role": "response",
      "kind": "ToolCallPart",
      "tool": "postcode",
      "args": {
        "pc": "WV8 1PX"
      }
    },
    {
      "turn": 1,
      "role": "response",
      "kind": "ToolCallPart",
      "tool": "place",
      "args": {
        "query": "Prestwood",
        "la": "South Staffordshire"
      }
    },
    {
      "turn": 1,
      "role": "response",
      "kind": "ToolCallPart",
      "tool": "place",
      "args": {
        "la": "South Staffordshire",
        "query": "Beechwood Bonsai"
      }
    },
    {
      "turn": 1,
      "role": "response",
      "kind": "ToolCallPart",
      "tool": "place",
      "args": {
        "query": "Roundhill Farm",
        "la": "South Staffordshire"
      }
    },
    {
      "turn": 2,
      "role": "request",
      "kind": "ToolReturnPart",
      "tool": "postcode",
      "return": {
        "success": true,
        "postcode": "WV8 1PX",
        "lat": 52.62566656951965,
        "lon": -2.191960842481458,
        "admin_district": "South Staffordshire District"
      }
    },
    {
      "turn": 2,
      "role": "request",
      "kind": "ToolReturnPart",
      "tool": "place",
      "return": {
        "success": true,
        "query": "Prestwood",
        "la_filter": "South Staffordshire",
        "n_hits": 5,
        "hits": [
          {
            "name": "Prestwood",
            "type": "hamlet",
            "lat": 52.97698737202914,
            "lon": -1.8538039524207977,
            "admin_district": "East Staffordshire",
            "county": "Staffordshire"
          },
          {
            "name": "Prestwood",
            "type": "village",
            "lat": 52.47373647081847,
            "lon": -2.198246967137764,
            "admin_district": "South Staffordshire",
            "county": "Staffordshire"
          },
          {
            "name": "Prestwood Lane",
            "type": "named road",
            "lat": 52.97609629068312,
            "lon": -1.8457651790510432,
            "admin_district": "East Staffordshire",
            "county": "Staffordshire"
          },
          {
            "name": "Prestwood Lane",
            "type": "section of named road",
            "lat": 52.97779191889062,
            "lon": -1.8501971942258577,
            "admin_district": "East Staffordshire",
            "county": "Staffordshire"
          },
          {
            "name": "Prestwood Park Drive",
            "type": "named road",
            "lat": 52.780334980703486,
            "lon": -1.549268737339872,
            "admin_district": "South Derbyshire",
            "county": "Derbyshire"
          }
        ]
      }
    },
    {
      "turn": 2,
      "role": "request",
      "kind": "ToolReturnPart",
      "tool": "place",
      "return": {
        "success": true,
        "query": "Beechwood Bonsai",
        "la_filter": "South Staffordshire",
        "n_hits": 0,
        "hits": []
      }
    },
    {
      "turn": 2,
      "role": "request",
      "kind": "ToolReturnPart",
      "tool": "place",
      "return": {
        "success": true,
        "query": "Roundhill Farm",
        "la_filter": "South Staffordshire",
        "n_hits": 0,
        "hits": []
      }
    },
    {
      "turn": 3,
      "role": "response",
      "kind": "ThinkingPart",
      "text": ""
    },
    {
      "turn": 3,
      "role": "response",
      "kind": "ToolCallPart",
      "tool": "place",
      "args": {
        "query": "The Homestead",
        "la": "South Staffordshire"
      }
    },
    {
      "turn": 3,
      "role": "response",
      "kind": "ToolCallPart",
      "tool": "road",
      "args": {
        "la": "South Staffordshire",
        "query": "Wolverhampton Road"
      }
    },
    {
      "turn": 3,
      "role": "response",
      "kind": "ToolCallPart",
      "tool": "la_check",
      "args": {
        "lon": -2.19824696713776,
        "la": "South Staffordshire",
        "lat": 52.4737364708185
      }
    },
    {
      "turn": 4,
      "role": "request",
      "kind": "ToolReturnPart",
      "tool": "place",
      "return": {
        "success": true,
        "query": "The Homestead",
        "la_filter": "South Staffordshire",
        "n_hits": 1,
        "hits": [
          {
            "name": "The Homestead",
            "type": "named road",
            "lat": 51.74930681546834,
            "lon": -0.9845914856514136,
            "admin_district": "South Oxfordshire",
            "county": "Oxfordshire"
          }
        ]
      }
    },
    {
      "turn": 4,
      "role": "request",
      "kind": "ToolReturnPart",
      "tool": "road",
      "return": {
        "success": true,
        "query": "Wolverhampton Road",
        "la_filter": "South Staffordshire",
        "n_hits": 5,
        "hits": [
          {
            "name": "Wolverhampton Road",
            "lat": 52.71923829416708,
            "lon": -2.117397658070672,
            "in_la": "South Staffordshire"
          },
          {
            "name": "Wolverhampton Road",
            "lat": 52.72039155190665,
            "lon": -2.1172340580066566,
            "in_la": "South Staffordshire"
          },
          {
            "name": "Wolverhampton Road",
            "lat": 52.720157540808074,
            "lon": -2.1171553335741575,
            "in_la": "South Staffordshire"
          },
          {
            "name": "Wolverhampton Road",
            "lat": 52.721329121098115,
            "lon": -2.117007614468944,
            "in_la": "South Staffordshire"
          },
          {
            "name": "Wolverhampton Road",
            "lat": 52.72048775165219,
            "lon": -2.117041259830442,
            "in_la": "South Staffordshire"
          }
        ]
      }
    },
    {
      "turn": 4,
      "role": "request",
      "kind": "ToolReturnPart",
      "tool": "la_check",
      "return": {
        "success": true,
        "lat": 52.4737364708185,
        "lon": -2.19824696713776,
        "la": "South Staffordshire",
        "inside_la": true,
        "distance_km_approx": 0.0,
        "la_centroid_lat": 52.6255743669412,
        "la_centroid_lon": -2.1766636234531243
      }
    },
    {
      "turn": 5,
      "role": "response",
      "kind": "ThinkingPart",
      "text": ""
    },
    {
      "turn": 5,
      "role": "response",
      "kind": "ToolCallPart",
      "tool": "place",
      "args": {
        "query": "Round Hill Farm",
        "la": "South Staffordshire"
      }
    },
    {
      "turn": 6,
      "role": "request",
      "kind": "ToolReturnPart",
      "tool": "place",
      "return": {
        "success": true,
        "query": "Round Hill Farm",
        "la_filter": "South Staffordshire",
        "n_hits": 0,
        "hits": []
      }
    },
    {
      "turn": 7,
      "role": "response",
      "kind": "ThinkingPart",
      "text": ""
    },
    {
      "turn": 7,
      "role": "response",
      "kind": "ToolCallPart",
      "tool": "final_result",
      "args": {
        "picked_source": "place:Prestwood",
        "top_lat": 52.4737364708185,
        "verified_inside_admin_region": true,
        "evidence": "The site is located in Prestwood, South Staffordshire, adjacent to the A449 (Wolverhampton Road). The village of Prestwood in South Staffordshire provides a precise match for the location described in the address and map labels.",
        "confidence": "high",
        "sigma_m": 500,
        "top_lon": -2.19824696713776
      }
    },
    {
      "turn": 8,
      "role": "request",
      "kind": "ToolReturnPart",
      "tool": "final_result",
      "return": "Final result processed."
    }
  ]
}