{
  "case": "862ACE10-49B0-4423-B47D-F771D78D285D",
  "config": {
    "disabled_tools": [
      "la_check"
    ],
    "locate_model": "gemini-flash"
  },
  "pick": {
    "top_lat": 51.097568,
    "top_lon": 1.212858,
    "sigma_m": 500,
    "confidence": "high",
    "picked_source": "grid_ref:TR 250 380",
    "evidence": "The site is a long coastal strip at Capel Clifftop. The grid reference TR 250 380 (derived from the map's OS sheet reference TR 24/25/2638) lands directly on the clifftop south of Old Dover Road, consistent with the village of Capel-le-Ferne and the road centroids.",
    "verified_inside_admin_region": true
  },
  "err_km": 0.40830514314574035,
  "gt_centroids": [
    {
      "lat": 51.101917720606906,
      "lon": 1.2271788608745977
    },
    {
      "lat": 51.100682076531264,
      "lon": 1.2159564495151411
    }
  ],
  "trajectory_stats": {
    "tool_calls": {
      "place": 4,
      "road": 1,
      "grid_ref": 1,
      "final_result": 1
    },
    "total_tool_calls": 7,
    "n_turns": 7,
    "validator_retries": 0
  },
  "trajectory": [
    {
      "turn": 0,
      "role": "request",
      "kind": "UserPromptPart",
      "user_summary": "1 text + 1 images"
    },
    {
      "turn": 1,
      "role": "response",
      "kind": "ThinkingPart",
      "text": ""
    },
    {
      "turn": 1,
      "role": "response",
      "kind": "ToolCallPart",
      "tool": "place",
      "args": {
        "la": "Dover",
        "query": "Capel-le-Ferne"
      }
    },
    {
      "turn": 1,
      "role": "response",
      "kind": "ToolCallPart",
      "tool": "place",
      "args": {
        "la": "Dover",
        "query": "The Warren"
      }
    },
    {
      "turn": 1,
      "role": "response",
      "kind": "ToolCallPart",
      "tool": "road",
      "args": {
        "query": "Old Dover Road",
        "la": "Dover"
      }
    },
    {
      "turn": 1,
      "role": "response",
      "kind": "ToolCallPart",
      "tool": "place",
      "args": {
        "query": "Capel Court",
        "la": "Dover"
      }
    },
    {
      "turn": 2,
      "role": "request",
      "kind": "ToolReturnPart",
      "tool": "place",
      "return": {
        "success": true,
        "query": "Capel-le-Ferne",
        "la_filter": "Dover",
        "n_hits": 2,
        "hits": [
          {
            "name": "Capel-le-Ferne",
            "type": "village",
            "lat": 51.1012010905364,
            "lon": 1.20896650332385,
            "admin_district": "Dover",
            "county": "Kent"
          },
          {
            "name": "Capel-le-Ferne Primary School",
            "type": "primary education",
            "lat": 51.106657703237516,
            "lon": 1.2130167704287889,
            "admin_district": "Dover",
            "county": "Kent"
          }
        ]
      }
    },
    {
      "turn": 2,
      "role": "request",
      "kind": "ToolReturnPart",
      "tool": "place",
      "return": {
        "success": true,
        "query": "The Warren",
        "la_filter": "Dover",
        "n_hits": 1,
        "hits": [
          {
            "name": "The Warren",
            "type": "woodland or forest",
            "lat": 51.233508793288046,
            "lon": 1.2558087199433516,
            "admin_district": "Dover",
            "county": "Kent"
          }
        ]
      }
    },
    {
      "turn": 2,
      "role": "request",
      "kind": "ToolReturnPart",
      "tool": "road",
      "return": {
        "success": true,
        "query": "Old Dover Road",
        "la_filter": "Dover",
        "n_hits": 5,
        "hits": [
          {
            "name": "Old Dover Road",
            "lat": 51.102217608630546,
            "lon": 1.2275940964064425,
            "in_la": "Dover"
          },
          {
            "name": "Old Dover Road",
            "lat": 51.10150862179646,
            "lon": 1.2205410402322565,
            "in_la": "Dover"
          },
          {
            "name": "Old Dover Road",
            "lat": 51.101828450663575,
            "lon": 1.224510661158765,
            "in_la": "Dover"
          },
          {
            "name": "Old Dover Road",
            "lat": 51.09984077227463,
            "lon": 1.2064882392039664,
            "in_la": "Dover"
          },
          {
            "name": "Old Dover Road",
            "lat": 51.100016593219024,
            "lon": 1.2078458173626585,
            "in_la": "Dover"
          }
        ]
      }
    },
    {
      "turn": 2,
      "role": "request",
      "kind": "ToolReturnPart",
      "tool": "place",
      "return": {
        "success": true,
        "query": "Capel Court",
        "la_filter": "Dover",
        "n_hits": 2,
        "hits": [
          {
            "name": "Capel Court",
            "type": "named road",
            "lat": 53.826801852137535,
            "lon": -1.685119679963936,
            "admin_district": "Leeds",
            "county": null
          },
          {
            "name": "Capel Court",
            "type": "named road",
            "lat": 51.751246243549,
            "lon": -2.209680210169522,
            "admin_district": "Stroud",
            "county": "Gloucestershire"
          }
        ]
      }
    },
    {
      "turn": 3,
      "role": "response",
      "kind": "ThinkingPart",
      "text": ""
    },
    {
      "turn": 3,
      "role": "response",
      "kind": "ToolCallPart",
      "tool": "place",
      "args": {
        "query": "The Royal Oak",
        "la": "Dover"
      }
    },
    {
      "turn": 3,
      "role": "response",
      "kind": "ToolCallPart",
      "tool": "grid_ref",
      "args": {
        "gr": "TR 250 380"
      }
    },
    {
      "turn": 4,
      "role": "request",
      "kind": "ToolReturnPart",
      "tool": "place",
      "return": {
        "success": true,
        "query": "The Royal Oak",
        "la_filter": "Dover",
        "n_hits": 0,
        "hits": []
      }
    },
    {
      "turn": 4,
      "role": "request",
      "kind": "ToolReturnPart",
      "tool": "grid_ref",
      "return": {
        "success": true,
        "grid_ref": "TR 250 380",
        "lat": 51.09756807241437,
        "lon": 1.21285756391929
      }
    },
    {
      "turn": 5,
      "role": "response",
      "kind": "ThinkingPart",
      "text": ""
    },
    {
      "turn": 5,
      "role": "response",
      "kind": "ToolCallPart",
      "tool": "final_result",
      "args": {
        "top_lat": 51.097568,
        "sigma_m": 500,
        "evidence": "The site is a long coastal strip at Capel Clifftop. The grid reference TR 250 380 (derived from the map's OS sheet reference TR 24/25/2638) lands directly on the clifftop south of Old Dover Road, consistent with the village of Capel-le-Ferne and the road centroids.",
        "top_lon": 1.212858,
        "verified_inside_admin_region": true,
        "confidence": "high",
        "picked_source": "grid_ref:TR 250 380"
      }
    },
    {
      "turn": 6,
      "role": "request",
      "kind": "ToolReturnPart",
      "tool": "final_result",
      "return": "Final result processed."
    }
  ]
}