{
  "case": "A4DA03",
  "config": {
    "disabled_tools": [
      "la_check"
    ],
    "locate_model": "gemini-flash"
  },
  "pick": {
    "top_lat": 53.693412,
    "top_lon": -2.225686,
    "sigma_m": 300,
    "confidence": "high",
    "picked_source": "place:Tunstead",
    "evidence": "The site is located at Higher Tunstead Farm, north of Newchurch Road in Stacksteads. The map shows the site bounded by Tunstead Lane and Newchurch Road. Geocoding 'Tunstead' in Rossendale places us exactly in this cluster.",
    "verified_inside_admin_region": true
  },
  "err_km": 0.4388455931442378,
  "gt_centroids": [
    {
      "lat": 53.694456908805066,
      "lon": -2.2321136392404126
    }
  ],
  "trajectory_stats": {
    "tool_calls": {
      "place": 5,
      "intersect": 1,
      "road": 1,
      "final_result": 1
    },
    "total_tool_calls": 8,
    "n_turns": 7,
    "validator_retries": 0
  },
  "trajectory": [
    {
      "turn": 0,
      "role": "request",
      "kind": "UserPromptPart",
      "user_summary": "1 text + 1 images"
    },
    {
      "turn": 1,
      "role": "response",
      "kind": "ThinkingPart",
      "text": ""
    },
    {
      "turn": 1,
      "role": "response",
      "kind": "ToolCallPart",
      "tool": "place",
      "args": {
        "query": "Higher Tunstead Farm",
        "la": "Rossendale"
      }
    },
    {
      "turn": 1,
      "role": "response",
      "kind": "ToolCallPart",
      "tool": "place",
      "args": {
        "query": "Stacksteads",
        "la": "Rossendale"
      }
    },
    {
      "turn": 1,
      "role": "response",
      "kind": "ToolCallPart",
      "tool": "place",
      "args": {
        "query": "Waterbarn",
        "la": "Rossendale"
      }
    },
    {
      "turn": 1,
      "role": "response",
      "kind": "ToolCallPart",
      "tool": "intersect",
      "args": {
        "road_a": "Newchurch Road",
        "la": "Rossendale",
        "road_b": "Booth Road"
      }
    },
    {
      "turn": 2,
      "role": "request",
      "kind": "ToolReturnPart",
      "tool": "place",
      "return": {
        "success": true,
        "query": "Higher Tunstead Farm",
        "la_filter": "Rossendale",
        "n_hits": 0,
        "hits": []
      }
    },
    {
      "turn": 2,
      "role": "request",
      "kind": "ToolReturnPart",
      "tool": "place",
      "return": {
        "success": true,
        "query": "Stacksteads",
        "la_filter": "Rossendale",
        "n_hits": 1,
        "hits": [
          {
            "name": "Stacksteads",
            "type": "suburban area",
            "lat": 53.69364266592209,
            "lon": -2.232214224860093,
            "admin_district": "Rossendale",
            "county": "Lancashire"
          }
        ]
      }
    },
    {
      "turn": 2,
      "role": "request",
      "kind": "ToolReturnPart",
      "tool": "place",
      "return": {
        "success": true,
        "query": "Waterbarn",
        "la_filter": "Rossendale",
        "n_hits": 2,
        "hits": [
          {
            "name": "Waterbarn",
            "type": "suburban area",
            "lat": 53.6910206944685,
            "lon": -2.2355010215742492,
            "admin_district": "Rossendale",
            "county": "Lancashire"
          },
          {
            "name": "Waterbarn Lane",
            "type": "named road",
            "lat": 53.691389114692356,
            "lon": -2.235548510154839,
            "admin_district": "Rossendale",
            "county": "Lancashire"
          }
        ]
      }
    },
    {
      "turn": 2,
      "role": "request",
      "kind": "ToolReturnPart",
      "tool": "intersect",
      "return": {
        "success": true,
        "roads": [
          "Newchurch Road",
          "Booth Road"
        ],
        "la_filter": "Rossendale",
        "n_intersections": 1,
        "intersections": [
          {
            "lat": 53.692826,
            "lon": -2.220563,
            "roads": [
              "Newchurch Road",
              "Booth Road"
            ]
          }
        ]
      }
    },
    {
      "turn": 3,
      "role": "response",
      "kind": "ThinkingPart",
      "text": ""
    },
    {
      "turn": 3,
      "role": "response",
      "kind": "ToolCallPart",
      "tool": "place",
      "args": {
        "query": "Tunstead",
        "la": "Rossendale"
      }
    },
    {
      "turn": 3,
      "role": "response",
      "kind": "ToolCallPart",
      "tool": "place",
      "args": {
        "la": "Rossendale",
        "query": "Carlton Terrace"
      }
    },
    {
      "turn": 3,
      "role": "response",
      "kind": "ToolCallPart",
      "tool": "road",
      "args": {
        "query": "Newchurch Road",
        "la": "Rossendale"
      }
    },
    {
      "turn": 4,
      "role": "request",
      "kind": "ToolReturnPart",
      "tool": "place",
      "return": {
        "success": true,
        "query": "Tunstead",
        "la_filter": "Rossendale",
        "n_hits": 5,
        "hits": [
          {
            "name": "Tunstead",
            "type": "suburban area",
            "lat": 53.69341247758592,
            "lon": -2.2256858223146563,
            "admin_district": "Rossendale",
            "county": "Lancashire"
          },
          {
            "name": "Tunstead Road",
            "type": "named road",
            "lat": 53.69430457280618,
            "lon": -2.2244790406319255,
            "admin_district": "Rossendale",
            "county": "Lancashire"
          },
          {
            "name": "Tunstead Lane",
            "type": "section of named road",
            "lat": 53.69380450938774,
            "lon": -2.2321848279000513,
            "admin_district": "Rossendale",
            "county": "Lancashire"
          },
          {
            "name": "Tunstead Lane",
            "type": "named road",
            "lat": 53.69590238920494,
            "lon": -2.234922495622875,
            "admin_district": "Rossendale",
            "county": "Lancashire"
          },
          {
            "name": "Tunstead Crescent",
            "type": "named road",
            "lat": 53.6950502676271,
            "lon": -2.2246496046325444,
            "admin_district": "Rossendale",
            "county": "Lancashire"
          }
        ]
      }
    },
    {
      "turn": 4,
      "role": "request",
      "kind": "ToolReturnPart",
      "tool": "place",
      "return": {
        "success": true,
        "query": "Carlton Terrace",
        "la_filter": "Rossendale",
        "n_hits": 5,
        "hits": [
          {
            "name": "Carlton Terrace",
            "type": "named road",
            "lat": 55.955920594241825,
            "lon": -3.173440408734045,
            "admin_district": null,
            "county": "City of Edinburgh"
          },
          {
            "name": "Carlton Terrace",
            "type": "named road",
            "lat": 54.935286705580765,
            "lon": -1.6035475585731136,
            "admin_district": "Gateshead",
            "county": null
          },
          {
            "name": "Carlton Terrace",
            "type": "named road",
            "lat": 55.008908394607445,
            "lon": -1.4602387406617063,
            "admin_district": "North Tyneside",
            "county": null
          },
          {
            "name": "Carlton Terrace",
            "type": "named road",
            "lat": 54.78281232890941,
            "lon": -1.3507269308394338,
            "admin_district": null,
            "county": "County Durham"
          },
          {
            "name": "Carlton Terrace",
            "type": "named road",
            "lat": 53.72065499320246,
            "lon": -1.862440786280721,
            "admin_district": "Calderdale",
            "county": null
          }
        ]
      }
    },
    {
      "turn": 4,
      "role": "request",
      "kind": "ToolReturnPart",
      "tool": "road",
      "return": {
        "success": true,
        "query": "Newchurch Road",
        "la_filter": "Rossendale",
        "n_hits": 5,
        "hits": [
          {
            "name": "Newchurch Road",
            "lat": 53.69457408251801,
            "lon": -2.206695064512566,
            "in_la": "Rossendale"
          },
          {
            "name": "Newchurch Road",
            "lat": 53.69490880292592,
            "lon": -2.206276971052911,
            "in_la": "Rossendale"
          },
          {
            "name": "Newchurch Road",
            "lat": 53.698844282728054,
            "lon": -2.257597488662199,
            "in_la": "Rossendale"
          },
          {
            "name": "Newchurch Road",
            "lat": 53.700924055002915,
            "lon": -2.2654702152414425,
            "in_la": "Rossendale"
          },
          {
            "name": "Newchurch Road",
            "lat": 53.7002377128617,
            "lon": -2.2636646552916,
            "in_la": "Rossendale"
          }
        ]
      }
    },
    {
      "turn": 5,
      "role": "response",
      "kind": "ThinkingPart",
      "text": ""
    },
    {
      "turn": 5,
      "role": "response",
      "kind": "ToolCallPart",
      "tool": "final_result",
      "args": {
        "picked_source": "place:Tunstead",
        "top_lat": 53.693412,
        "top_lon": -2.225686,
        "sigma_m": 300,
        "confidence": "high",
        "evidence": "The site is located at Higher Tunstead Farm, north of Newchurch Road in Stacksteads. The map shows the site bounded by Tunstead Lane and Newchurch Road. Geocoding 'Tunstead' in Rossendale places us exactly in this cluster.",
        "verified_inside_admin_region": true
      }
    },
    {
      "turn": 6,
      "role": "request",
      "kind": "ToolReturnPart",
      "tool": "final_result",
      "return": "Final result processed."
    }
  ]
}