{
  "case": "641BF666-7262-4847-9393-17841CF92430",
  "config": {
    "disabled_tools": [
      "grid_ref",
      "intersect",
      "la_check",
      "postcode",
      "road"
    ],
    "locate_model": "gemini-flash"
  },
  "pick": {
    "top_lat": 51.2748787834997,
    "top_lon": 1.33964552532809,
    "sigma_m": 500,
    "confidence": "high",
    "picked_source": "place:Sandwich",
    "evidence": "The map shows the 'Sandwich Walled Town Conservation Area'. The 'Sandwich' town hit from OS Open Names aligns perfectly with the dense urban core and river loop (River Stour) shown on the map. The grid references TR3257/TR3357/TR3258/TR3358 also confirm this location.",
    "verified_inside_admin_region": true
  },
  "err_km": 0.1155236676309626,
  "gt_centroids": [
    {
      "lat": 51.27589222175795,
      "lon": 1.340011153800493
    }
  ],
  "trajectory_stats": {
    "tool_calls": {
      "place": 1,
      "final_result": 1
    },
    "total_tool_calls": 2,
    "n_turns": 5,
    "validator_retries": 0
  },
  "trajectory": [
    {
      "turn": 0,
      "role": "request",
      "kind": "UserPromptPart",
      "user_summary": "1 text + 1 images"
    },
    {
      "turn": 1,
      "role": "response",
      "kind": "ThinkingPart",
      "text": ""
    },
    {
      "turn": 1,
      "role": "response",
      "kind": "ToolCallPart",
      "tool": "place",
      "args": {
        "la": "Dover",
        "query": "Sandwich"
      }
    },
    {
      "turn": 2,
      "role": "request",
      "kind": "ToolReturnPart",
      "tool": "place",
      "return": {
        "success": true,
        "query": "Sandwich",
        "la_filter": "Dover",
        "n_hits": 5,
        "hits": [
          {
            "name": "Sandwich",
            "type": "town",
            "lat": 51.27487878349973,
            "lon": 1.339645525328093,
            "admin_district": "Dover",
            "county": "Kent"
          },
          {
            "name": "Sandwich",
            "type": "railway station",
            "lat": 51.269601201081876,
            "lon": 1.3430194575279453,
            "admin_district": "Dover",
            "county": "Kent"
          },
          {
            "name": "Sandwich Bay Estate",
            "type": "village",
            "lat": 51.266146317085045,
            "lon": 1.384951756073922,
            "admin_district": "Dover",
            "county": "Kent"
          },
          {
            "name": "Sandwich Road",
            "type": "named road",
            "lat": 51.22781542457786,
            "lon": 1.2464098698834851,
            "admin_district": "Dover",
            "county": "Kent"
          },
          {
            "name": "Sandwich Road",
            "type": "section of named road",
            "lat": 51.24094997096471,
            "lon": 1.3521894500848424,
            "admin_district": "Dover",
            "county": "Kent"
          }
        ]
      }
    },
    {
      "turn": 3,
      "role": "response",
      "kind": "ThinkingPart",
      "text": ""
    },
    {
      "turn": 3,
      "role": "response",
      "kind": "ToolCallPart",
      "tool": "final_result",
      "args": {
        "top_lat": 51.2748787834997,
        "evidence": "The map shows the 'Sandwich Walled Town Conservation Area'. The 'Sandwich' town hit from OS Open Names aligns perfectly with the dense urban core and river loop (River Stour) shown on the map. The grid references TR3257/TR3357/TR3258/TR3358 also confirm this location.",
        "sigma_m": 500,
        "confidence": "high",
        "top_lon": 1.33964552532809,
        "verified_inside_admin_region": true,
        "picked_source": "place:Sandwich"
      }
    },
    {
      "turn": 4,
      "role": "request",
      "kind": "ToolReturnPart",
      "tool": "final_result",
      "return": "Final result processed."
    }
  ]
}