{
  "case": "A4D16",
  "config": {
    "disabled_tools": [
      "grid_ref",
      "intersect",
      "la_check",
      "postcode",
      "road"
    ],
    "locate_model": "gemini-flash"
  },
  "pick": {
    "top_lat": 51.48394,
    "top_lon": -2.61535,
    "sigma_m": 200,
    "confidence": "high",
    "picked_source": "intersect:Henleaze Avenue x Henleaze Gardens",
    "evidence": "The site is a large block bounded by Henleaze Avenue, Henleaze Gardens, and Westbury Road. Geocoding Henleaze Avenue and Henleaze Gardens places the site precisely at these coordinates in Bristol.",
    "verified_inside_admin_region": true
  },
  "err_km": 0.06203984844541835,
  "gt_centroids": [
    {
      "lat": 51.48387396219555,
      "lon": -2.614460349745082
    }
  ],
  "trajectory_stats": {
    "tool_calls": {
      "place": 3,
      "final_result": 1
    },
    "total_tool_calls": 4,
    "n_turns": 5,
    "validator_retries": 0
  },
  "trajectory": [
    {
      "turn": 0,
      "role": "request",
      "kind": "UserPromptPart",
      "user_summary": "1 text + 1 images"
    },
    {
      "turn": 1,
      "role": "response",
      "kind": "ThinkingPart",
      "text": ""
    },
    {
      "turn": 1,
      "role": "response",
      "kind": "ToolCallPart",
      "tool": "place",
      "args": {
        "query": "Henleaze Avenue",
        "la": "Bristol"
      }
    },
    {
      "turn": 1,
      "role": "response",
      "kind": "ToolCallPart",
      "tool": "place",
      "args": {
        "query": "Henleaze Gardens",
        "la": "Bristol"
      }
    },
    {
      "turn": 1,
      "role": "response",
      "kind": "ToolCallPart",
      "tool": "place",
      "args": {
        "la": "Bristol",
        "query": "Westbury Road"
      }
    },
    {
      "turn": 2,
      "role": "request",
      "kind": "ToolReturnPart",
      "tool": "place",
      "return": {
        "success": true,
        "query": "Henleaze Avenue",
        "la_filter": "Bristol",
        "n_hits": 5,
        "hits": [
          {
            "name": "Henleaze Avenue",
            "type": "named road",
            "lat": 51.48431667477151,
            "lon": -2.614943332150991,
            "admin_district": null,
            "county": "City of Bristol"
          },
          {
            "name": "Henleaze",
            "type": "suburban area",
            "lat": 51.48433522127838,
            "lon": -2.5974458828736853,
            "admin_district": null,
            "county": "City of Bristol"
          },
          {
            "name": "Henleaze Road",
            "type": "named road",
            "lat": 51.48688947348572,
            "lon": -2.6095483235840717,
            "admin_district": null,
            "county": "City of Bristol"
          },
          {
            "name": "Henleaze Terrace",
            "type": "named road",
            "lat": 51.49196741280022,
            "lon": -2.6082621138933897,
            "admin_district": null,
            "county": "City of Bristol"
          },
          {
            "name": "Henleaze Park",
            "type": "named road",
            "lat": 51.48500153258694,
            "lon": -2.604280954952658,
            "admin_district": null,
            "county": "City of Bristol"
          }
        ]
      }
    },
    {
      "turn": 2,
      "role": "request",
      "kind": "ToolReturnPart",
      "tool": "place",
      "return": {
        "success": true,
        "query": "Henleaze Gardens",
        "la_filter": "Bristol",
        "n_hits": 1,
        "hits": [
          {
            "name": "Henleaze Gardens",
            "type": "named road",
            "lat": 51.48357503115098,
            "lon": -2.61576862000426,
            "admin_district": null,
            "county": "City of Bristol"
          }
        ]
      }
    },
    {
      "turn": 2,
      "role": "request",
      "kind": "ToolReturnPart",
      "tool": "place",
      "return": {
        "success": true,
        "query": "Westbury Road",
        "la_filter": "Bristol",
        "n_hits": 5,
        "hits": [
          {
            "name": "Westbury Road",
            "type": "named road",
            "lat": 51.480432035161634,
            "lon": -2.6167054865744435,
            "admin_district": null,
            "county": "City of Bristol"
          },
          {
            "name": "Westbury on Trym",
            "type": "suburban area",
            "lat": 51.49079294584912,
            "lon": -2.6213247993697113,
            "admin_district": null,
            "county": "City of Bristol"
          },
          {
            "name": "Westbury Park",
            "type": "suburban area",
            "lat": 51.47972680907631,
            "lon": -2.610575991847121,
            "admin_district": null,
            "county": "City of Bristol"
          },
          {
            "name": "Westbury Hill",
            "type": "named road",
            "lat": 51.49212021131591,
            "lon": -2.6168776535400946,
            "admin_district": null,
            "county": "City of Bristol"
          },
          {
            "name": "Westbury Park",
            "type": "named road",
            "lat": 51.47745421922507,
            "lon": -2.615297382539585,
            "admin_district": null,
            "county": "City of Bristol"
          }
        ]
      }
    },
    {
      "turn": 3,
      "role": "response",
      "kind": "ThinkingPart",
      "text": ""
    },
    {
      "turn": 3,
      "role": "response",
      "kind": "ToolCallPart",
      "tool": "final_result",
      "args": {
        "top_lon": -2.61535,
        "sigma_m": 200,
        "verified_inside_admin_region": true,
        "picked_source": "intersect:Henleaze Avenue x Henleaze Gardens",
        "confidence": "high",
        "evidence": "The site is a large block bounded by Henleaze Avenue, Henleaze Gardens, and Westbury Road. Geocoding Henleaze Avenue and Henleaze Gardens places the site precisely at these coordinates in Bristol.",
        "top_lat": 51.48394
      }
    },
    {
      "turn": 4,
      "role": "request",
      "kind": "ToolReturnPart",
      "tool": "final_result",
      "return": "Final result processed."
    }
  ]
}