{
  "case": "SSA410",
  "config": {
    "disabled_tools": [
      "road"
    ],
    "locate_model": "gemini-flash"
  },
  "pick": {
    "top_lat": 52.77785,
    "top_lon": -2.13201,
    "sigma_m": 400,
    "confidence": "high",
    "picked_source": "place:Hyde Lea",
    "evidence": "The site is located in Hyde Lea, Stafford. Multiple signals (Hyde Lea village and Bradley Lane) converge on this area. The postcode WV8 1PX is for the Council Offices in Codsall (letterhead). The site is specifically 'Land rear of Kevina' on Bradley Lane.",
    "verified_inside_admin_region": false
  },
  "err_km": 0.24304269835977055,
  "gt_centroids": [
    {
      "lat": 52.77638928961494,
      "lon": -2.134697914890217
    }
  ],
  "trajectory_stats": {
    "tool_calls": {
      "postcode": 1,
      "place": 6,
      "la_check": 1,
      "final_result": 1
    },
    "total_tool_calls": 9,
    "n_turns": 9,
    "validator_retries": 0
  },
  "trajectory": [
    {
      "turn": 0,
      "role": "request",
      "kind": "UserPromptPart",
      "user_summary": "1 text + 1 images"
    },
    {
      "turn": 1,
      "role": "response",
      "kind": "ThinkingPart",
      "text": ""
    },
    {
      "turn": 1,
      "role": "response",
      "kind": "ToolCallPart",
      "tool": "postcode",
      "args": {
        "pc": "WV8 1PX"
      }
    },
    {
      "turn": 1,
      "role": "response",
      "kind": "ToolCallPart",
      "tool": "place",
      "args": {
        "la": "South Staffordshire",
        "query": "Hyde Lea"
      }
    },
    {
      "turn": 1,
      "role": "response",
      "kind": "ToolCallPart",
      "tool": "place",
      "args": {
        "query": "Kevina",
        "la": "South Staffordshire"
      }
    },
    {
      "turn": 1,
      "role": "response",
      "kind": "ToolCallPart",
      "tool": "place",
      "args": {
        "la": "South Staffordshire",
        "query": "Bradley Lane"
      }
    },
    {
      "turn": 2,
      "role": "request",
      "kind": "ToolReturnPart",
      "tool": "postcode",
      "return": {
        "success": true,
        "postcode": "WV8 1PX",
        "lat": 52.62566656951965,
        "lon": -2.191960842481458,
        "admin_district": "South Staffordshire District"
      }
    },
    {
      "turn": 2,
      "role": "request",
      "kind": "ToolReturnPart",
      "tool": "place",
      "return": {
        "success": true,
        "query": "Hyde Lea",
        "la_filter": "South Staffordshire",
        "n_hits": 4,
        "hits": [
          {
            "name": "Hyde Lea",
            "type": "village",
            "lat": 52.777853122229125,
            "lon": -2.1320135458590608,
            "admin_district": "Stafford",
            "county": "Staffordshire"
          },
          {
            "name": "Hyde Lea Bank",
            "type": "section of named road",
            "lat": 52.781416271842694,
            "lon": -2.1290147460408786,
            "admin_district": "Stafford",
            "county": "Staffordshire"
          },
          {
            "name": "Hyde Lea Bank",
            "type": "named road",
            "lat": 52.780065882634,
            "lon": -2.1308045904440487,
            "admin_district": "Stafford",
            "county": "Staffordshire"
          },
          {
            "name": "Hyde Lea Bank",
            "type": "section of named road",
            "lat": 52.77914877578164,
            "lon": -2.1309649088409883,
            "admin_district": "Stafford",
            "county": "Staffordshire"
          }
        ]
      }
    },
    {
      "turn": 2,
      "role": "request",
      "kind": "ToolReturnPart",
      "tool": "place",
      "return": {
        "success": true,
        "query": "Kevina",
        "la_filter": "South Staffordshire",
        "n_hits": 0,
        "hits": []
      }
    },
    {
      "turn": 2,
      "role": "request",
      "kind": "ToolReturnPart",
      "tool": "place",
      "return": {
        "success": true,
        "query": "Bradley Lane",
        "la_filter": "South Staffordshire",
        "n_hits": 5,
        "hits": [
          {
            "name": "Bradley Lane",
            "type": "named road",
            "lat": 52.76932425367889,
            "lon": -2.184248405114154,
            "admin_district": "Stafford",
            "county": "Staffordshire"
          },
          {
            "name": "Bradley Lane",
            "type": "section of named road",
            "lat": 52.763963760429306,
            "lon": -2.180179965560829,
            "admin_district": "Stafford",
            "county": "Staffordshire"
          },
          {
            "name": "Bradley Lane",
            "type": "named road",
            "lat": 52.77784999946748,
            "lon": -2.1347857029101123,
            "admin_district": "Stafford",
            "county": "Staffordshire"
          },
          {
            "name": "Bradley Lane",
            "type": "section of named road",
            "lat": 52.777530203243806,
            "lon": -2.1908651030225577,
            "admin_district": "Stafford",
            "county": "Staffordshire"
          },
          {
            "name": "Bradley",
            "type": "village",
            "lat": 52.76030710671464,
            "lon": -2.178801553150121,
            "admin_district": "Stafford",
            "county": "Staffordshire"
          }
        ]
      }
    },
    {
      "turn": 3,
      "role": "response",
      "kind": "ThinkingPart",
      "text": ""
    },
    {
      "turn": 3,
      "role": "response",
      "kind": "ToolCallPart",
      "tool": "place",
      "args": {
        "la": "Stafford",
        "query": "Thaxted"
      }
    },
    {
      "turn": 3,
      "role": "response",
      "kind": "ToolCallPart",
      "tool": "place",
      "args": {
        "query": "Tanglemere",
        "la": "Stafford"
      }
    },
    {
      "turn": 3,
      "role": "response",
      "kind": "ToolCallPart",
      "tool": "la_check",
      "args": {
        "lon": -2.13201,
        "la": "South Staffordshire",
        "lat": 52.77785
      }
    },
    {
      "turn": 4,
      "role": "request",
      "kind": "ToolReturnPart",
      "tool": "place",
      "return": {
        "success": true,
        "query": "Thaxted",
        "la_filter": "Stafford",
        "n_hits": 5,
        "hits": [
          {
            "name": "Thaxted",
            "type": "town",
            "lat": 51.9537091952334,
            "lon": 0.3437585059999962,
            "admin_district": "Uttlesford",
            "county": "Essex"
          },
          {
            "name": "Thaxted Place",
            "type": "named road",
            "lat": 53.58465695848917,
            "lon": -2.4506426941383865,
            "admin_district": "Bolton",
            "county": null
          },
          {
            "name": "Thaxted Walk",
            "type": "named road",
            "lat": 53.3697006499676,
            "lon": -2.266967589323087,
            "admin_district": "Manchester",
            "county": null
          },
          {
            "name": "Thaxted Drive",
            "type": "named road",
            "lat": 53.391859548764174,
            "lon": -2.103850669133658,
            "admin_district": "Stockport",
            "county": null
          },
          {
            "name": "Thaxted Close",
            "type": "named road",
            "lat": 52.961544635909995,
            "lon": -1.2332783982516975,
            "admin_district": null,
            "county": "City of Nottingham"
          }
        ]
      }
    },
    {
      "turn": 4,
      "role": "request",
      "kind": "ToolReturnPart",
      "tool": "place",
      "return": {
        "success": true,
        "query": "Tanglemere",
        "la_filter": "Stafford",
        "n_hits": 0,
        "hits": []
      }
    },
    {
      "turn": 4,
      "role": "request",
      "kind": "ToolReturnPart",
      "tool": "la_check",
      "return": {
        "success": true,
        "lat": 52.77785,
        "lon": -2.13201,
        "la": "South Staffordshire",
        "inside_la": false,
        "distance_km_approx": 0.21,
        "la_centroid_lat": 52.6255743669412,
        "la_centroid_lon": -2.1766636234531243
      }
    },
    {
      "turn": 5,
      "role": "response",
      "kind": "ThinkingPart",
      "text": ""
    },
    {
      "turn": 5,
      "role": "response",
      "kind": "ToolCallPart",
      "tool": "place",
      "args": {
        "query": "Hyde Lea Bank, Stafford"
      }
    },
    {
      "turn": 6,
      "role": "request",
      "kind": "ToolReturnPart",
      "tool": "place",
      "return": {
        "success": true,
        "query": "Hyde Lea Bank, Stafford",
        "la_filter": null,
        "n_hits": 0,
        "hits": []
      }
    },
    {
      "turn": 7,
      "role": "response",
      "kind": "ThinkingPart",
      "text": ""
    },
    {
      "turn": 7,
      "role": "response",
      "kind": "ToolCallPart",
      "tool": "final_result",
      "args": {
        "top_lat": 52.77785,
        "top_lon": -2.13201,
        "verified_inside_admin_region": false,
        "picked_source": "place:Hyde Lea",
        "confidence": "high",
        "sigma_m": 400,
        "evidence": "The site is located in Hyde Lea, Stafford. Multiple signals (Hyde Lea village and Bradley Lane) converge on this area. The postcode WV8 1PX is for the Council Offices in Codsall (letterhead). The site is specifically 'Land rear of Kevina' on Bradley Lane."
      }
    },
    {
      "turn": 8,
      "role": "request",
      "kind": "ToolReturnPart",
      "tool": "final_result",
      "return": "Final result processed."
    }
  ]
}