{
  "case": "A4D13",
  "config": {
    "disabled_tools": [
      "postcode"
    ],
    "locate_model": "gemini-flash"
  },
  "pick": {
    "top_lat": 51.458,
    "top_lon": -2.59,
    "sigma_m": 2500,
    "confidence": "high",
    "picked_source": "place:Bristol Central Wards",
    "evidence": "The map shows a large area covering central Bristol wards (Ashley, Cabot, Clifton, Cotham, Lawrence Hill). The centroid of these named areas clusters around the city centre near Broadmead and the University. 51.458, -2.59 is a central point within this boundary.",
    "verified_inside_admin_region": true
  },
  "err_km": 0.10537898485251698,
  "gt_centroids": [
    {
      "lat": 51.458402413647626,
      "lon": -2.588622956525424
    }
  ],
  "trajectory_stats": {
    "tool_calls": {
      "place": 6,
      "la_check": 1,
      "final_result": 1
    },
    "total_tool_calls": 8,
    "n_turns": 7,
    "validator_retries": 0
  },
  "trajectory": [
    {
      "turn": 0,
      "role": "request",
      "kind": "UserPromptPart",
      "user_summary": "1 text + 1 images"
    },
    {
      "turn": 1,
      "role": "response",
      "kind": "ThinkingPart",
      "text": ""
    },
    {
      "turn": 1,
      "role": "response",
      "kind": "ToolCallPart",
      "tool": "place",
      "args": {
        "query": "Cabot",
        "la": "Bristol"
      }
    },
    {
      "turn": 1,
      "role": "response",
      "kind": "ToolCallPart",
      "tool": "place",
      "args": {
        "la": "Bristol",
        "query": "Lawrence Hill"
      }
    },
    {
      "turn": 1,
      "role": "response",
      "kind": "ToolCallPart",
      "tool": "place",
      "args": {
        "la": "Bristol",
        "query": "Clifton East"
      }
    },
    {
      "turn": 1,
      "role": "response",
      "kind": "ToolCallPart",
      "tool": "place",
      "args": {
        "query": "Cotham",
        "la": "Bristol"
      }
    },
    {
      "turn": 2,
      "role": "request",
      "kind": "ToolReturnPart",
      "tool": "place",
      "return": {
        "success": true,
        "query": "Cabot",
        "la_filter": "Bristol",
        "n_hits": 3,
        "hits": [
          {
            "name": "Cabot Mews",
            "type": "named road",
            "lat": 51.45665445170448,
            "lon": -2.5822742188112913,
            "admin_district": null,
            "county": "City of Bristol"
          },
          {
            "name": "Cabot Way",
            "type": "named road",
            "lat": 51.449826430026015,
            "lon": -2.623142786902008,
            "admin_district": null,
            "county": "City of Bristol"
          },
          {
            "name": "Cabot Primary School",
            "type": "primary education",
            "lat": 51.46289068685004,
            "lon": -2.581259623082061,
            "admin_district": null,
            "county": "City of Bristol"
          }
        ]
      }
    },
    {
      "turn": 2,
      "role": "request",
      "kind": "ToolReturnPart",
      "tool": "place",
      "return": {
        "success": true,
        "query": "Lawrence Hill",
        "la_filter": "Bristol",
        "n_hits": 2,
        "hits": [
          {
            "name": "Lawrence Hill",
            "type": "named road",
            "lat": 51.4585161637399,
            "lon": -2.569372776638987,
            "admin_district": null,
            "county": "City of Bristol"
          },
          {
            "name": "Lawrence Hill",
            "type": "railway station",
            "lat": 51.458559756394564,
            "lon": -2.564076598886442,
            "admin_district": null,
            "county": "City of Bristol"
          }
        ]
      }
    },
    {
      "turn": 2,
      "role": "request",
      "kind": "ToolReturnPart",
      "tool": "place",
      "return": {
        "success": true,
        "query": "Clifton East",
        "la_filter": "Bristol",
        "n_hits": 0,
        "hits": []
      }
    },
    {
      "turn": 2,
      "role": "request",
      "kind": "ToolReturnPart",
      "tool": "place",
      "return": {
        "success": true,
        "query": "Cotham",
        "la_filter": "Bristol",
        "n_hits": 5,
        "hits": [
          {
            "name": "Cotham",
            "type": "suburban area",
            "lat": 51.46446903853837,
            "lon": -2.596408969899886,
            "admin_district": null,
            "county": "City of Bristol"
          },
          {
            "name": "Cotham Hill",
            "type": "named road",
            "lat": 51.46339710279902,
            "lon": -2.607291856917865,
            "admin_district": null,
            "county": "City of Bristol"
          },
          {
            "name": "Cotham Brow",
            "type": "named road",
            "lat": 51.46696738105788,
            "lon": -2.5949011910807966,
            "admin_district": null,
            "county": "City of Bristol"
          },
          {
            "name": "Cotham Gardens",
            "type": "named road",
            "lat": 51.46384138922196,
            "lon": -2.606578009382624,
            "admin_district": null,
            "county": "City of Bristol"
          },
          {
            "name": "Cotham Side",
            "type": "named road",
            "lat": 51.4639706633967,
            "lon": -2.5953948216770715,
            "admin_district": null,
            "county": "City of Bristol"
          }
        ]
      }
    },
    {
      "turn": 3,
      "role": "response",
      "kind": "ThinkingPart",
      "text": ""
    },
    {
      "turn": 3,
      "role": "response",
      "kind": "ToolCallPart",
      "tool": "place",
      "args": {
        "la": "Bristol",
        "query": "Ashley Down"
      }
    },
    {
      "turn": 3,
      "role": "response",
      "kind": "ToolCallPart",
      "tool": "place",
      "args": {
        "la": "Bristol",
        "query": "Clifton"
      }
    },
    {
      "turn": 3,
      "role": "response",
      "kind": "ToolCallPart",
      "tool": "la_check",
      "args": {
        "lat": 51.458,
        "lon": -2.59,
        "la": "Bristol"
      }
    },
    {
      "turn": 4,
      "role": "request",
      "kind": "ToolReturnPart",
      "tool": "place",
      "return": {
        "success": true,
        "query": "Ashley Down",
        "la_filter": "Bristol",
        "n_hits": 5,
        "hits": [
          {
            "name": "Ashley Down",
            "type": "suburban area",
            "lat": 51.480582488252075,
            "lon": -2.582003005315234,
            "admin_district": null,
            "county": "City of Bristol"
          },
          {
            "name": "Ashley Down",
            "type": "railway station",
            "lat": 51.47882753038863,
            "lon": -2.5768687834832233,
            "admin_district": null,
            "county": "City of Bristol"
          },
          {
            "name": "Ashley Down Road",
            "type": "named road",
            "lat": 51.47949143866354,
            "lon": -2.5808083237638217,
            "admin_district": null,
            "county": "City of Bristol"
          },
          {
            "name": "Ashley Down Primary School Brunel Field",
            "type": "primary education",
            "lat": 51.47836475535482,
            "lon": -2.5831699249436557,
            "admin_district": null,
            "county": "City of Bristol"
          },
          {
            "name": "Ashley Down Primary School",
            "type": "primary education",
            "lat": 51.483618122412345,
            "lon": -2.584518664363242,
            "admin_district": null,
            "county": "City of Bristol"
          }
        ]
      }
    },
    {
      "turn": 4,
      "role": "request",
      "kind": "ToolReturnPart",
      "tool": "place",
      "return": {
        "success": true,
        "query": "Clifton",
        "la_filter": "Bristol",
        "n_hits": 5,
        "hits": [
          {
            "name": "Clifton",
            "type": "suburban area",
            "lat": 51.46183013774923,
            "lon": -2.616368258143215,
            "admin_district": null,
            "county": "City of Bristol"
          },
          {
            "name": "Clifton Wood",
            "type": "suburban area",
            "lat": 51.453088991525824,
            "lon": -2.6148976783581803,
            "admin_district": null,
            "county": "City of Bristol"
          },
          {
            "name": "Clifton Park",
            "type": "named road",
            "lat": 51.45822206028217,
            "lon": -2.6185361886543044,
            "admin_district": null,
            "county": "City of Bristol"
          },
          {
            "name": "Clifton Down",
            "type": "named road",
            "lat": 51.46145143207009,
            "lon": -2.6250572530379954,
            "admin_district": null,
            "county": "City of Bristol"
          },
          {
            "name": "Cliftonwood Terrace",
            "type": "named road",
            "lat": 51.45002069923455,
            "lon": -2.613590069913852,
            "admin_district": null,
            "county": "City of Bristol"
          }
        ]
      }
    },
    {
      "turn": 4,
      "role": "request",
      "kind": "ToolReturnPart",
      "tool": "la_check",
      "return": {
        "success": true,
        "lat": 51.458,
        "lon": -2.59,
        "la": "Bristol",
        "inside_la": true,
        "distance_km_approx": 0.0,
        "la_centroid_lat": 51.452561432043865,
        "la_centroid_lon": -2.7711276870856563
      }
    },
    {
      "turn": 5,
      "role": "response",
      "kind": "ThinkingPart",
      "text": ""
    },
    {
      "turn": 5,
      "role": "response",
      "kind": "ToolCallPart",
      "tool": "final_result",
      "args": {
        "verified_inside_admin_region": true,
        "top_lon": -2.59,
        "top_lat": 51.458,
        "evidence": "The map shows a large area covering central Bristol wards (Ashley, Cabot, Clifton, Cotham, Lawrence Hill). The centroid of these named areas clusters around the city centre near Broadmead and the University. 51.458, -2.59 is a central point within this boundary.",
        "picked_source": "place:Bristol Central Wards",
        "confidence": "high",
        "sigma_m": 2500
      }
    },
    {
      "turn": 6,
      "role": "request",
      "kind": "ToolReturnPart",
      "tool": "final_result",
      "return": "Final result processed."
    }
  ]
}