{
  "case": "A4D6",
  "config": {
    "disabled_tools": [
      "postcode"
    ],
    "locate_model": "gemini-flash"
  },
  "pick": {
    "top_lat": 51.47,
    "top_lon": -2.545,
    "sigma_m": 1500,
    "confidence": "high",
    "picked_source": "place:Rose Green",
    "evidence": "The site is a large Article 4 Direction area in East Bristol. The picked coordinate (51.47, -2.545) is the approximate centroid of the polygon bounded by Eastville, Fishponds, Whitehall, and St George, as confirmed by multiple place name hits and the map image.",
    "verified_inside_admin_region": true
  },
  "err_km": 0.25098578910088043,
  "gt_centroids": [
    {
      "lat": 51.47223696915572,
      "lon": -2.545483701252686
    }
  ],
  "trajectory_stats": {
    "tool_calls": {
      "place": 6,
      "la_check": 1,
      "final_result": 1
    },
    "total_tool_calls": 8,
    "n_turns": 9,
    "validator_retries": 0
  },
  "trajectory": [
    {
      "turn": 0,
      "role": "request",
      "kind": "UserPromptPart",
      "user_summary": "1 text + 1 images"
    },
    {
      "turn": 1,
      "role": "response",
      "kind": "ThinkingPart",
      "text": ""
    },
    {
      "turn": 1,
      "role": "response",
      "kind": "ToolCallPart",
      "tool": "place",
      "args": {
        "la": "Bristol",
        "query": "Eastville"
      }
    },
    {
      "turn": 1,
      "role": "response",
      "kind": "ToolCallPart",
      "tool": "place",
      "args": {
        "la": "Bristol",
        "query": "Fishponds"
      }
    },
    {
      "turn": 1,
      "role": "response",
      "kind": "ToolCallPart",
      "tool": "place",
      "args": {
        "la": "Bristol",
        "query": "Whitehall"
      }
    },
    {
      "turn": 1,
      "role": "response",
      "kind": "ToolCallPart",
      "tool": "place",
      "args": {
        "la": "Bristol",
        "query": "St George's Park"
      }
    },
    {
      "turn": 2,
      "role": "request",
      "kind": "ToolReturnPart",
      "tool": "place",
      "return": {
        "success": true,
        "query": "Eastville",
        "la_filter": "Bristol",
        "n_hits": 1,
        "hits": [
          {
            "name": "Eastville",
            "type": "suburban area",
            "lat": 51.47402315077522,
            "lon": -2.5607830375772367,
            "admin_district": null,
            "county": "City of Bristol"
          }
        ]
      }
    },
    {
      "turn": 2,
      "role": "request",
      "kind": "ToolReturnPart",
      "tool": "place",
      "return": {
        "success": true,
        "query": "Fishponds",
        "la_filter": "Bristol",
        "n_hits": 5,
        "hits": [
          {
            "name": "Fishponds",
            "type": "other settlement",
            "lat": 51.48146726607609,
            "lon": -2.5280701274842836,
            "admin_district": null,
            "county": "City of Bristol"
          },
          {
            "name": "Fishponds Road",
            "type": "section of named road",
            "lat": 51.473200812351166,
            "lon": -2.5521774255191367,
            "admin_district": null,
            "county": "City of Bristol"
          },
          {
            "name": "Fishponds Road",
            "type": "section of named road",
            "lat": 51.47909205601575,
            "lon": -2.532362595233225,
            "admin_district": null,
            "county": "City of Bristol"
          },
          {
            "name": "Fishponds Road",
            "type": "named road",
            "lat": 51.47530155049405,
            "lon": -2.543261320115977,
            "admin_district": null,
            "county": "City of Bristol"
          },
          {
            "name": "Fishponds Church of England Academy",
            "type": "primary education",
            "lat": 51.47954569281728,
            "lon": -2.5334478678548638,
            "admin_district": null,
            "county": "City of Bristol"
          }
        ]
      }
    },
    {
      "turn": 2,
      "role": "request",
      "kind": "ToolReturnPart",
      "tool": "place",
      "return": {
        "success": true,
        "query": "Whitehall",
        "la_filter": "Bristol",
        "n_hits": 5,
        "hits": [
          {
            "name": "Whitehall",
            "type": "suburban area",
            "lat": 51.46373691645291,
            "lon": -2.551271427145748,
            "admin_district": null,
            "county": "City of Bristol"
          },
          {
            "name": "Whitehall Gardens",
            "type": "named road",
            "lat": 51.46366903180398,
            "lon": -2.5523214336772475,
            "admin_district": null,
            "county": "City of Bristol"
          },
          {
            "name": "Whitehall Road",
            "type": "named road",
            "lat": 51.4631914179184,
            "lon": -2.5525459806764057,
            "admin_district": null,
            "county": "City of Bristol"
          },
          {
            "name": "Whitehall Primary School",
            "type": "primary education",
            "lat": 51.46508494638624,
            "lon": -2.555231992165723,
            "admin_district": null,
            "county": "City of Bristol"
          },
          {
            "name": "Whitehall Avenue",
            "type": "named road",
            "lat": 51.46417721716184,
            "lon": -2.543632980002001,
            "admin_district": null,
            "county": "City of Bristol"
          }
        ]
      }
    },
    {
      "turn": 2,
      "role": "request",
      "kind": "ToolReturnPart",
      "tool": "place",
      "return": {
        "success": true,
        "query": "St George's Park",
        "la_filter": "Bristol",
        "n_hits": 4,
        "hits": [
          {
            "name": "St George's Park",
            "type": "hospital",
            "lat": 55.17804531742781,
            "lon": -1.6827461051356696,
            "admin_district": null,
            "county": "Northumberland"
          },
          {
            "name": "St George's Park",
            "type": "named road",
            "lat": 53.43444941569128,
            "lon": -3.0460555896506043,
            "admin_district": "Wirral",
            "county": null
          },
          {
            "name": "St George's Park",
            "type": "other landcover",
            "lat": 50.41053050653857,
            "lon": -4.674219605131065,
            "admin_district": null,
            "county": "Cornwall"
          },
          {
            "name": "St George's Park",
            "type": "named road",
            "lat": 51.11655731494019,
            "lon": 0.2542117196722218,
            "admin_district": "Tunbridge Wells",
            "county": "Kent"
          }
        ]
      }
    },
    {
      "turn": 3,
      "role": "response",
      "kind": "ThinkingPart",
      "text": ""
    },
    {
      "turn": 3,
      "role": "response",
      "kind": "ToolCallPart",
      "tool": "place",
      "args": {
        "la": "Bristol",
        "query": "St George's Park, Bristol"
      }
    },
    {
      "turn": 3,
      "role": "response",
      "kind": "ToolCallPart",
      "tool": "place",
      "args": {
        "la": "Bristol",
        "query": "Rose Green"
      }
    },
    {
      "turn": 4,
      "role": "request",
      "kind": "ToolReturnPart",
      "tool": "place",
      "return": {
        "success": true,
        "query": "St George's Park, Bristol",
        "la_filter": "Bristol",
        "n_hits": 0,
        "hits": []
      }
    },
    {
      "turn": 4,
      "role": "request",
      "kind": "ToolReturnPart",
      "tool": "place",
      "return": {
        "success": true,
        "query": "Rose Green",
        "la_filter": "Bristol",
        "n_hits": 5,
        "hits": [
          {
            "name": "Rose Green",
            "type": "suburban area",
            "lat": 51.46942690404221,
            "lon": -2.547798448475914,
            "admin_district": null,
            "county": "City of Bristol"
          },
          {
            "name": "Rose Green Road",
            "type": "section of named road",
            "lat": 51.47006888302057,
            "lon": -2.550872674464851,
            "admin_district": null,
            "county": "City of Bristol"
          },
          {
            "name": "Rose Green Road",
            "type": "section of named road",
            "lat": 51.467932512755084,
            "lon": -2.5423819698582624,
            "admin_district": null,
            "county": "City of Bristol"
          },
          {
            "name": "Rose Green Close",
            "type": "named road",
            "lat": 51.46871628035454,
            "lon": -2.5459327928405893,
            "admin_district": null,
            "county": "City of Bristol"
          },
          {
            "name": "Rose Green Road",
            "type": "section of named road",
            "lat": 51.46942181225431,
            "lon": -2.5469633806632976,
            "admin_district": null,
            "county": "City of Bristol"
          }
        ]
      }
    },
    {
      "turn": 5,
      "role": "response",
      "kind": "ThinkingPart",
      "text": ""
    },
    {
      "turn": 5,
      "role": "response",
      "kind": "ToolCallPart",
      "tool": "la_check",
      "args": {
        "la": "Bristol",
        "lat": 51.47,
        "lon": -2.545
      }
    },
    {
      "turn": 6,
      "role": "request",
      "kind": "ToolReturnPart",
      "tool": "la_check",
      "return": {
        "success": true,
        "lat": 51.47,
        "lon": -2.545,
        "la": "Bristol",
        "inside_la": true,
        "distance_km_approx": 0.0,
        "la_centroid_lat": 51.452561432043865,
        "la_centroid_lon": -2.7711276870856563
      }
    },
    {
      "turn": 7,
      "role": "response",
      "kind": "ThinkingPart",
      "text": ""
    },
    {
      "turn": 7,
      "role": "response",
      "kind": "ToolCallPart",
      "tool": "final_result",
      "args": {
        "evidence": "The site is a large Article 4 Direction area in East Bristol. The picked coordinate (51.47, -2.545) is the approximate centroid of the polygon bounded by Eastville, Fishponds, Whitehall, and St George, as confirmed by multiple place name hits and the map image.",
        "confidence": "high",
        "verified_inside_admin_region": true,
        "sigma_m": 1500,
        "top_lat": 51.47,
        "top_lon": -2.545,
        "picked_source": "place:Rose Green"
      }
    },
    {
      "turn": 8,
      "role": "request",
      "kind": "ToolReturnPart",
      "tool": "final_result",
      "return": "Final result processed."
    }
  ]
}