{
  "case": "A4DA03",
  "config": {
    "disabled_tools": [
      "postcode"
    ],
    "locate_model": "gemini-flash"
  },
  "pick": {
    "top_lat": 53.6959,
    "top_lon": -2.2349,
    "sigma_m": 300,
    "confidence": "high",
    "picked_source": "place:Tunstead Lane",
    "evidence": "The site is located at Higher Tunstead Farm, north of Stacksteads. The map shows the site bounded by Tunstead Lane and Newchurch Road. The coordinates for Tunstead Lane (53.6959, -2.2349) and the nearby Four Lane Ends (53.6929, -2.2315) align perfectly with the map features.",
    "verified_inside_admin_region": true
  },
  "err_km": 0.24372221902762653,
  "gt_centroids": [
    {
      "lat": 53.694456908805066,
      "lon": -2.2321136392404126
    }
  ],
  "trajectory_stats": {
    "tool_calls": {
      "place": 5,
      "road": 1,
      "intersect": 1,
      "la_check": 1,
      "final_result": 1
    },
    "total_tool_calls": 9,
    "n_turns": 9,
    "validator_retries": 0
  },
  "trajectory": [
    {
      "turn": 0,
      "role": "request",
      "kind": "UserPromptPart",
      "user_summary": "1 text + 1 images"
    },
    {
      "turn": 1,
      "role": "response",
      "kind": "ThinkingPart",
      "text": ""
    },
    {
      "turn": 1,
      "role": "response",
      "kind": "ToolCallPart",
      "tool": "place",
      "args": {
        "la": "Rossendale",
        "query": "Higher Tunstead Farm"
      }
    },
    {
      "turn": 1,
      "role": "response",
      "kind": "ToolCallPart",
      "tool": "place",
      "args": {
        "la": "Rossendale",
        "query": "Stacksteads"
      }
    },
    {
      "turn": 1,
      "role": "response",
      "kind": "ToolCallPart",
      "tool": "place",
      "args": {
        "la": "Rossendale",
        "query": "Tunstead"
      }
    },
    {
      "turn": 1,
      "role": "response",
      "kind": "ToolCallPart",
      "tool": "road",
      "args": {
        "query": "Newchurch Road",
        "la": "Rossendale"
      }
    },
    {
      "turn": 2,
      "role": "request",
      "kind": "ToolReturnPart",
      "tool": "place",
      "return": {
        "success": true,
        "query": "Higher Tunstead Farm",
        "la_filter": "Rossendale",
        "n_hits": 0,
        "hits": []
      }
    },
    {
      "turn": 2,
      "role": "request",
      "kind": "ToolReturnPart",
      "tool": "place",
      "return": {
        "success": true,
        "query": "Stacksteads",
        "la_filter": "Rossendale",
        "n_hits": 1,
        "hits": [
          {
            "name": "Stacksteads",
            "type": "suburban area",
            "lat": 53.69364266592209,
            "lon": -2.232214224860093,
            "admin_district": "Rossendale",
            "county": "Lancashire"
          }
        ]
      }
    },
    {
      "turn": 2,
      "role": "request",
      "kind": "ToolReturnPart",
      "tool": "place",
      "return": {
        "success": true,
        "query": "Tunstead",
        "la_filter": "Rossendale",
        "n_hits": 5,
        "hits": [
          {
            "name": "Tunstead",
            "type": "suburban area",
            "lat": 53.69341247758592,
            "lon": -2.2256858223146563,
            "admin_district": "Rossendale",
            "county": "Lancashire"
          },
          {
            "name": "Tunstead Road",
            "type": "named road",
            "lat": 53.69430457280618,
            "lon": -2.2244790406319255,
            "admin_district": "Rossendale",
            "county": "Lancashire"
          },
          {
            "name": "Tunstead Lane",
            "type": "section of named road",
            "lat": 53.69380450938774,
            "lon": -2.2321848279000513,
            "admin_district": "Rossendale",
            "county": "Lancashire"
          },
          {
            "name": "Tunstead Lane",
            "type": "named road",
            "lat": 53.69590238920494,
            "lon": -2.234922495622875,
            "admin_district": "Rossendale",
            "county": "Lancashire"
          },
          {
            "name": "Tunstead Crescent",
            "type": "named road",
            "lat": 53.6950502676271,
            "lon": -2.2246496046325444,
            "admin_district": "Rossendale",
            "county": "Lancashire"
          }
        ]
      }
    },
    {
      "turn": 2,
      "role": "request",
      "kind": "ToolReturnPart",
      "tool": "road",
      "return": {
        "success": true,
        "query": "Newchurch Road",
        "la_filter": "Rossendale",
        "n_hits": 5,
        "hits": [
          {
            "name": "Newchurch Road",
            "lat": 53.69457408251801,
            "lon": -2.206695064512566,
            "in_la": "Rossendale"
          },
          {
            "name": "Newchurch Road",
            "lat": 53.69490880292592,
            "lon": -2.206276971052911,
            "in_la": "Rossendale"
          },
          {
            "name": "Newchurch Road",
            "lat": 53.698844282728054,
            "lon": -2.257597488662199,
            "in_la": "Rossendale"
          },
          {
            "name": "Newchurch Road",
            "lat": 53.700924055002915,
            "lon": -2.2654702152414425,
            "in_la": "Rossendale"
          },
          {
            "name": "Newchurch Road",
            "lat": 53.7002377128617,
            "lon": -2.2636646552916,
            "in_la": "Rossendale"
          }
        ]
      }
    },
    {
      "turn": 3,
      "role": "response",
      "kind": "ThinkingPart",
      "text": ""
    },
    {
      "turn": 3,
      "role": "response",
      "kind": "ToolCallPart",
      "tool": "place",
      "args": {
        "query": "Carlton Terrace",
        "la": "Rossendale"
      }
    },
    {
      "turn": 3,
      "role": "response",
      "kind": "ToolCallPart",
      "tool": "intersect",
      "args": {
        "road_b": "Newchurch Road",
        "la": "Rossendale",
        "road_a": "Tunstead Lane"
      }
    },
    {
      "turn": 4,
      "role": "request",
      "kind": "ToolReturnPart",
      "tool": "place",
      "return": {
        "success": true,
        "query": "Carlton Terrace",
        "la_filter": "Rossendale",
        "n_hits": 5,
        "hits": [
          {
            "name": "Carlton Terrace",
            "type": "named road",
            "lat": 55.955920594241825,
            "lon": -3.173440408734045,
            "admin_district": null,
            "county": "City of Edinburgh"
          },
          {
            "name": "Carlton Terrace",
            "type": "named road",
            "lat": 54.935286705580765,
            "lon": -1.6035475585731136,
            "admin_district": "Gateshead",
            "county": null
          },
          {
            "name": "Carlton Terrace",
            "type": "named road",
            "lat": 55.008908394607445,
            "lon": -1.4602387406617063,
            "admin_district": "North Tyneside",
            "county": null
          },
          {
            "name": "Carlton Terrace",
            "type": "named road",
            "lat": 54.78281232890941,
            "lon": -1.3507269308394338,
            "admin_district": null,
            "county": "County Durham"
          },
          {
            "name": "Carlton Terrace",
            "type": "named road",
            "lat": 53.72065499320246,
            "lon": -1.862440786280721,
            "admin_district": "Calderdale",
            "county": null
          }
        ]
      }
    },
    {
      "turn": 4,
      "role": "request",
      "kind": "ToolReturnPart",
      "tool": "intersect",
      "return": {
        "success": false,
        "error": "No road geometry in Rossendale for: ['Tunstead Lane']"
      }
    },
    {
      "turn": 5,
      "role": "response",
      "kind": "ThinkingPart",
      "text": ""
    },
    {
      "turn": 5,
      "role": "response",
      "kind": "ToolCallPart",
      "tool": "place",
      "args": {
        "query": "Four Lane Ends",
        "la": "Rossendale"
      }
    },
    {
      "turn": 5,
      "role": "response",
      "kind": "ToolCallPart",
      "tool": "la_check",
      "args": {
        "la": "Rossendale",
        "lon": -2.2349,
        "lat": 53.6959
      }
    },
    {
      "turn": 6,
      "role": "request",
      "kind": "ToolReturnPart",
      "tool": "place",
      "return": {
        "success": true,
        "query": "Four Lane Ends",
        "la_filter": "Rossendale",
        "n_hits": 1,
        "hits": [
          {
            "name": "Four Lane Ends Road",
            "type": "named road",
            "lat": 53.69293393136604,
            "lon": -2.231528840645193,
            "admin_district": "Rossendale",
            "county": "Lancashire"
          }
        ]
      }
    },
    {
      "turn": 6,
      "role": "request",
      "kind": "ToolReturnPart",
      "tool": "la_check",
      "return": {
        "success": true,
        "lat": 53.6959,
        "lon": -2.2349,
        "la": "Rossendale",
        "inside_la": true,
        "distance_km_approx": 0.0,
        "la_centroid_lat": 53.69381770640495,
        "la_centroid_lon": -2.2673137098881666
      }
    },
    {
      "turn": 7,
      "role": "response",
      "kind": "ThinkingPart",
      "text": ""
    },
    {
      "turn": 7,
      "role": "response",
      "kind": "ToolCallPart",
      "tool": "final_result",
      "args": {
        "top_lon": -2.2349,
        "confidence": "high",
        "verified_inside_admin_region": true,
        "picked_source": "place:Tunstead Lane",
        "sigma_m": 300,
        "top_lat": 53.6959,
        "evidence": "The site is located at Higher Tunstead Farm, north of Stacksteads. The map shows the site bounded by Tunstead Lane and Newchurch Road. The coordinates for Tunstead Lane (53.6959, -2.2349) and the nearby Four Lane Ends (53.6929, -2.2315) align perfectly with the map features."
      }
    },
    {
      "turn": 8,
      "role": "request",
      "kind": "ToolReturnPart",
      "tool": "final_result",
      "return": "Final result processed."
    }
  ]
}