{
  "case": "SSA409",
  "config": {
    "disabled_tools": [
      "postcode"
    ],
    "locate_model": "gemini-flash"
  },
  "pick": {
    "top_lat": 52.518,
    "top_lon": -2.175,
    "sigma_m": 400,
    "confidence": "high",
    "picked_source": "place:Himley / road:Stourbridge Road",
    "evidence": "The site is 'Land at Himley Park, Himley'. The map shows a large area bounded by a road on the west (Stourbridge Road A449). Geocoding Himley village and Stourbridge Road in South Staffordshire places the site at these coordinates.",
    "verified_inside_admin_region": true
  },
  "err_km": 0.8262587858667342,
  "gt_centroids": [
    {
      "lat": 52.52542718297215,
      "lon": -2.174623037999248
    }
  ],
  "trajectory_stats": {
    "tool_calls": {
      "place": 3,
      "road": 1,
      "la_check": 1,
      "final_result": 1
    },
    "total_tool_calls": 6,
    "n_turns": 9,
    "validator_retries": 0
  },
  "trajectory": [
    {
      "turn": 0,
      "role": "request",
      "kind": "UserPromptPart",
      "user_summary": "1 text + 1 images"
    },
    {
      "turn": 1,
      "role": "response",
      "kind": "ThinkingPart",
      "text": ""
    },
    {
      "turn": 1,
      "role": "response",
      "kind": "ToolCallPart",
      "tool": "place",
      "args": {
        "la": "South Staffordshire",
        "query": "Himley Park"
      }
    },
    {
      "turn": 1,
      "role": "response",
      "kind": "ToolCallPart",
      "tool": "place",
      "args": {
        "query": "Himley",
        "la": "South Staffordshire"
      }
    },
    {
      "turn": 2,
      "role": "request",
      "kind": "ToolReturnPart",
      "tool": "place",
      "return": {
        "success": true,
        "query": "Himley Park",
        "la_filter": "South Staffordshire",
        "n_hits": 0,
        "hits": []
      }
    },
    {
      "turn": 2,
      "role": "request",
      "kind": "ToolReturnPart",
      "tool": "place",
      "return": {
        "success": true,
        "query": "Himley",
        "la_filter": "South Staffordshire",
        "n_hits": 5,
        "hits": [
          {
            "name": "Himley",
            "type": "village",
            "lat": 52.518382734865384,
            "lon": -2.180026942455045,
            "admin_district": "South Staffordshire",
            "county": "Staffordshire"
          },
          {
            "name": "Himley Way",
            "type": "named road",
            "lat": 52.63463440978258,
            "lon": -1.6428658048161655,
            "admin_district": "Tamworth",
            "county": "Staffordshire"
          },
          {
            "name": "Himley Lane",
            "type": "named road",
            "lat": 52.51628647997492,
            "lon": -2.1924557533608593,
            "admin_district": "South Staffordshire",
            "county": "Staffordshire"
          },
          {
            "name": "Himley Lane",
            "type": "section of named road",
            "lat": 52.51376345961386,
            "lon": -2.201359634735294,
            "admin_district": "South Staffordshire",
            "county": "Staffordshire"
          },
          {
            "name": "Himley Plantation",
            "type": "woodland or forest",
            "lat": 52.51928084277577,
            "lon": -2.1920120006733117,
            "admin_district": "South Staffordshire",
            "county": "Staffordshire"
          }
        ]
      }
    },
    {
      "turn": 3,
      "role": "response",
      "kind": "ThinkingPart",
      "text": ""
    },
    {
      "turn": 3,
      "role": "response",
      "kind": "ToolCallPart",
      "tool": "place",
      "args": {
        "la": "South Staffordshire",
        "query": "Himley Hall"
      }
    },
    {
      "turn": 3,
      "role": "response",
      "kind": "ToolCallPart",
      "tool": "road",
      "args": {
        "query": "Stourbridge Road",
        "la": "South Staffordshire"
      }
    },
    {
      "turn": 4,
      "role": "request",
      "kind": "ToolReturnPart",
      "tool": "place",
      "return": {
        "success": true,
        "query": "Himley Hall",
        "la_filter": "South Staffordshire",
        "n_hits": 0,
        "hits": []
      }
    },
    {
      "turn": 4,
      "role": "request",
      "kind": "ToolReturnPart",
      "tool": "road",
      "return": {
        "success": true,
        "query": "Stourbridge Road",
        "la_filter": "South Staffordshire",
        "n_hits": 5,
        "hits": [
          {
            "name": "Stourbridge Road",
            "lat": 52.51677066888937,
            "lon": -2.17460095730563,
            "in_la": "South Staffordshire"
          },
          {
            "name": "Stourbridge Road",
            "lat": 52.517086325224916,
            "lon": -2.174678324516707,
            "in_la": "South Staffordshire"
          },
          {
            "name": "Stourbridge Road",
            "lat": 52.5180362713959,
            "lon": -2.1749334341287274,
            "in_la": "South Staffordshire"
          },
          {
            "name": "Stourbridge Road",
            "lat": 52.519000355399356,
            "lon": -2.1753539619472955,
            "in_la": "South Staffordshire"
          },
          {
            "name": "Stourbridge Road",
            "lat": 52.51994282390931,
            "lon": -2.17573964141101,
            "in_la": "South Staffordshire"
          }
        ]
      }
    },
    {
      "turn": 5,
      "role": "response",
      "kind": "ThinkingPart",
      "text": ""
    },
    {
      "turn": 5,
      "role": "response",
      "kind": "ToolCallPart",
      "tool": "la_check",
      "args": {
        "la": "South Staffordshire",
        "lat": 52.518,
        "lon": -2.175
      }
    },
    {
      "turn": 6,
      "role": "request",
      "kind": "ToolReturnPart",
      "tool": "la_check",
      "return": {
        "success": true,
        "lat": 52.518,
        "lon": -2.175,
        "la": "South Staffordshire",
        "inside_la": true,
        "distance_km_approx": 0.0,
        "la_centroid_lat": 52.6255743669412,
        "la_centroid_lon": -2.1766636234531243
      }
    },
    {
      "turn": 7,
      "role": "response",
      "kind": "ThinkingPart",
      "text": ""
    },
    {
      "turn": 7,
      "role": "response",
      "kind": "ToolCallPart",
      "tool": "final_result",
      "args": {
        "sigma_m": 400,
        "top_lat": 52.518,
        "picked_source": "place:Himley / road:Stourbridge Road",
        "evidence": "The site is 'Land at Himley Park, Himley'. The map shows a large area bounded by a road on the west (Stourbridge Road A449). Geocoding Himley village and Stourbridge Road in South Staffordshire places the site at these coordinates.",
        "verified_inside_admin_region": true,
        "top_lon": -2.175,
        "confidence": "high"
      }
    },
    {
      "turn": 8,
      "role": "request",
      "kind": "ToolReturnPart",
      "tool": "final_result",
      "return": "Final result processed."
    }
  ]
}